[{"id":"1","name":" Susersie","lat":"34.875599","lng":"-81.962481","address":"2308 E Blackstock Rd","address2":"","city":"Roebuck","state":"SC","postal":"29376","phone":"864-7061119","web":"","hours1":"","hours2":"","hours3":""},
{"id":"2","name":"1256 Pennsylvania Ave","lat":"40.673306","lng":"-78.236977","address":"1256 Pennsylvania Ave","address2":"","city":"Tyrone","state":"PA","postal":"16686","phone":"814-684-1740","web":"","hours1":"","hours2":"","hours3":""},
{"id":"3","name":"2 Become 1 Studio             ","lat":"39.108367","lng":"-95.664475","address":"3416 NW Topeka Blvd           ","address2":"","city":"Topeka              ","state":"KS","postal":"66617","phone":"785-286-2272        ","web":"","hours1":"","hours2":"","hours3":""},
{"id":"4","name":"A Home Garden Shop Inc        ","lat":"36.277256","lng":"-76.981222","address":"804 E Memorial Dr             ","address2":"","city":"Ahoskie             ","state":"NC","postal":"27910","phone":"252-332-8110        ","web":"","hours1":"","hours2":"","hours3":""},
{"id":"5","name":"A La Carte                    ","lat":"42.106102","lng":"-80.142224","address":"2624 W 8th Street             ","address2":"","city":"Erie                ","state":"PA","postal":"16505","phone":"814-838-6749        ","web":"","hours1":"","hours2":"","hours3":""},
{"id":"6","name":"Accents                       ","lat":"32.353072","lng":"-97.369858","address":"1663 E Henderson St           ","address2":"","city":"Cleburne            ","state":"TX","postal":"76031","phone":"817-641-8501        ","web":"","hours1":"","hours2":"","hours3":""},
{"id":"7","name":"Ace Hardware of Richardson    ","lat":"32.676023","lng":"-96.602525","address":"7989 Beltline Suite 100       ","address2":"","city":"Dallas              ","state":"TX","postal":"75248","phone":"972-716-9558        ","web":"","hours1":"","hours2":"","hours3":""},
{"id":"8","name":"Added Accents                 ","lat":"35.479695","lng":"-79.178477","address":"124 S Steele Street           ","address2":"","city":"Sanford             ","state":"NC","postal":"27330","phone":"919-774-5030        ","web":"","hours1":"","hours2":"","hours3":""},
{"id":"9","name":"Akron Pharmacy                ","lat":"43.020294","lng":"-78.500337","address":"62 Main Street                ","address2":"","city":"Akron               ","state":"NY","postal":"14001","phone":"716-542-4420        ","web":"","hours1":"","hours2":"","hours3":""},
{"id":"10","name":"All About Moi                 ","lat":"35.526161","lng":"-98.709231","address":"209 W Main                    ","address2":"","city":"Weatherford         ","state":"OK","postal":"73096","phone":"580-302-0554        ","web":"","hours1":"","hours2":"","hours3":""},
{"id":"11","name":"All Seasons Imports Inc       ","lat":"25.863318","lng":"-80.32359","address":"9820 NW 77th Ave              ","address2":"","city":"Hialeah Gardens     ","state":"FL","postal":"33016","phone":"305-557-8799        ","web":"","hours1":"","hours2":"","hours3":""},
{"id":"12","name":"Allie Harper                  ","lat":"34.865291","lng":"-84.32468","address":"624 E Main St                 ","address2":"","city":"Blue Ridge          ","state":"GA","postal":"30513","phone":"251-709-8382        ","web":"","hours1":"","hours2":"","hours3":""},
{"id":"13","name":"Allyoops                      ","lat":"32.329991","lng":"-90.089676","address":"207 Kersh Road                ","address2":"","city":"Pearl               ","state":"MS","postal":"39208","phone":"601--927-9071       ","web":"","hours1":"","hours2":"","hours3":""},
{"id":"14","name":"Amayesn Designs               ","lat":"31.829328","lng":"-99.42289","address":"215 S Commercial Ave          ","address2":"","city":"Coleman             ","state":"TX","postal":"76834","phone":"325-669-9888        ","web":"","hours1":"","hours2":"","hours3":""},
{"id":"15","name":"Amie B & The Orchid Emporium  ","lat":"38.594998","lng":"-92.233386","address":"3004 W Truman Blvd            ","address2":"","city":"Jefferson City      ","state":"MO","postal":"65109","phone":"573-635-9338        ","web":"","hours1":"","hours2":"","hours3":""},
{"id":"16","name":"Ana Molinari.Salonspaboutique ","lat":"27.394994","lng":"-82.434438","address":"8120 Lakewood Main St         ","address2":"","city":"Bradenton           ","state":"FL","postal":"34202","phone":"941-373-3900        ","web":"","hours1":"","hours2":"","hours3":""},
{"id":"17","name":"Ananas                        ","lat":"33.623682","lng":"-97.146318","address":"111 S Commerce St             ","address2":"","city":"Gainesville         ","state":"TX","postal":"76240","phone":"940-612-4663        ","web":"","hours1":"","hours2":"","hours3":""},
{"id":"18","name":"ANDERSON'S CANDY SHOP & GIFTS ","lat":"42.475153","lng":"-88.306135","address":"10301 MAIN STREET             ","address2":"","city":"Richmond            ","state":"IL","postal":"60071","phone":"815-678-6000        ","web":"","hours1":"","hours2":"","hours3":""},
{"id":"19","name":"Ann Crittenden #3             ","lat":"36.095188","lng":"-79.864137","address":"4417 Green Forest Rd          ","address2":"","city":"Greensboro          ","state":"NC","postal":"27410","phone":"336-292-9060        ","web":"","hours1":"","hours2":"","hours3":""},
{"id":"20","name":"Apple Annies/Country Class    ","lat":"32.746429","lng":"-97.314795","address":"714 C Grapevine HWY           ","address2":"","city":"Hurst               ","state":"TX","postal":"76054","phone":"817-281-0831        ","web":"","hours1":"","hours2":"","hours3":""},
{"id":"21","name":"ARAMARK HEARST CASTLE         ","lat":"35.64386","lng":"-121.19075","address":"CA-1      ","address2":"","city":"San Simeon          ","state":"CA","postal":"93452","phone":"805-927-8601","web":"","hours1":"","hours2":"","hours3":""},
{"id":"22","name":"Aroma Inc of Thorp            ","lat":"44.956905","lng":"-90.800489","address":"300 N Washington Street       ","address2":"","city":"Thorp               ","state":"WI","postal":"54771","phone":"715-669-5527        ","web":"","hours1":"","hours2":"","hours3":""},
{"id":"23","name":"ARTISANS GALLERY              ","lat":"39.117529","lng":"-77.250847","address":"12147 DARNESTOWN ROAD         ","address2":"","city":"Gaithersburg        ","state":"MD","postal":"20878","phone":"301-990-3219        ","web":"","hours1":"","hours2":"","hours3":""},
{"id":"24","name":"Aspirus Wausau Hospital       ","lat":"44.965499","lng":"-89.67018","address":"333 Pine Ridge Blvd           ","address2":"The Gift Shop"                 ,"city":"Wausau              ","state":"WI","postal":"54401","phone":"715-847-2739        ","web":"","hours1":"","hours2":"","hours3":""},
{"id":"25","name":"Athens Pharmacy and Gifts     ","lat":"34.803358","lng":"-86.977279","address":"705 W Market St               ","address2":"","city":"Athens              ","state":"AL","postal":"35611","phone":"256-232-2242        ","web":"","hours1":"","hours2":"","hours3":""},
{"id":"26","name":"Audrey's Closet               ","lat":"33.099753","lng":"-98.589426","address":"6049 Hwy 16 South             ","address2":"","city":"Graham              ","state":"TX","postal":"76450","phone":"940-549-9555        ","web":"","hours1":"","hours2":"","hours3":""},
{"id":"27","name":"AVERY LANE                    ","lat":"33.625565","lng":"-111.92212","address":"15613 N GREENWAY              ","address2":"HAYDEN LOOP SUITE 102"         ,"city":"Scottsdale          ","state":"AZ","postal":"85260","phone":"480-991-0700        ","web":"","hours1":"","hours2":"","hours3":""},
{"id":"28","name":"BAGS N' BANGLES               ","lat":"40.087024","lng":"-75.252677","address":"537 GERMANTOWN PIKE           ","address2":"","city":"Lafayette Hill      ","state":"PA","postal":"19444","phone":"610-825-4888        ","web":"","hours1":"","hours2":"","hours3":""},
{"id":"29","name":"BALBOA VISITOR CENTER         ","lat":"32.724103","lng":"-117.170912","address":"1549 E PRADO, SUITE 1         ","address2":"","city":"San Diego           ","state":"CA","postal":"92101","phone":"619-235-3066        ","web":"","hours1":"","hours2":"","hours3":""},
{"id":"30","name":"Banner Del E Webb Med Gift Shp","lat":"33.658845","lng":"-112.370433","address":"14502 W Meeker Blvd           ","address2":"","city":"Sun City West       ","state":"AZ","postal":"85375","phone":"623-524-4019        ","web":"","hours1":"","hours2":"","hours3":""},
{"id":"31","name":"BANNER DESERT MEDICAL CENTER  ","lat":"33.389166","lng":"-111.874807","address":"1400 S DOBSON RD              ","address2":"","city":"Mesa                ","state":"AZ","postal":"85202","phone":"480-612-3262","web":"","hours1":"","hours2":"","hours3":""},
{"id":"32","name":"BANNER ESTRELLA MEDICAL CENTER","lat":"33.479535","lng":"-112.257414","address":"9201 WEST THOMAS ROAD         ","address2":"","city":"Phoenix             ","state":"AZ","postal":"85037","phone":"623-327-4059","web":"","hours1":"","hours2":"","hours3":""},
{"id":"33","name":"BARE BONES CARGO              ","lat":"33.796234","lng":"-87.316923","address":"526 19 STREET WEST            ","address2":"","city":"Jasper              ","state":"AL","postal":"35501","phone":"205-275-5268        ","web":"","hours1":"","hours2":"","hours3":""},
{"id":"34","name":"Barnes Pharmacy               ","lat":"31.769227","lng":"-82.352743","address":"694 S Main Street             ","address2":"","city":"Baxley              ","state":"GA","postal":"31513","phone":"912-367-7708        ","web":"","hours1":"","hours2":"","hours3":""},
{"id":"35","name":"Baskets of Delight            ","lat":"33.18568","lng":"-94.85438","address":"2849 County Road 3180         ","address2":"","city":"Cookville           ","state":"TX","postal":"75558","phone":"903-575-9104        ","web":"","hours1":"","hours2":"","hours3":""},
{"id":"36","name":"BAVARIAN INN                  ","lat":"43.327696","lng":"-83.739986","address":"713 S. MAIN ST.               ","address2":"","city":"Frankenmuth         ","state":"MI","postal":"48734","phone":"989-652-9985        ","web":"","hours1":"","hours2":"","hours3":""},
{"id":"37","name":"Bayhealth Medical Center      ","lat":"39.151785","lng":"-75.522422","address":"640 S State Street            ","address2":"","city":"Dover               ","state":"DE","postal":"19901","phone":"302-744-6116        ","web":"","hours1":"","hours2":"","hours3":""},
{"id":"38","name":"BEAR ESSENTIALS               ","lat":"34.129031","lng":"-118.011198","address":"1032 BUNGALOW PL              ","address2":"","city":"Arcadia             ","state":"CA","postal":"91006","phone":"626-446-4995        ","web":"","hours1":"","hours2":"","hours3":""},
{"id":"39","name":"BEAVER BARK & ROCK            ","lat":"46.257132","lng":"-119.334215","address":"607 AARON DR                  ","address2":"","city":"Richland            ","state":"WA","postal":"99352","phone":"509-946-1000","web":"","hours1":"","hours2":"","hours3":""},
{"id":"40","name":"Belgian Horse Winery          ","lat":"40.02258","lng":"-85.520266","address":"7100 W CR 625 North           ","address2":"","city":"Middletown          ","state":"IN","postal":"47356","phone":"765-533-7000        ","web":"","hours1":"","hours2":"","hours3":""},
{"id":"41","name":"Ben Franklin 5113             ","lat":"34.442057","lng":"-119.262643","address":"1201 Maricopa Highway         ","address2":"","city":"Ojai                ","state":"CA","postal":"93023","phone":"805-646-3835        ","web":"","hours1":"","hours2":"","hours3":""},
{"id":"42","name":"Benjamin Walden Creations     ","lat":"30.450562","lng":"-85.05524","address":"20187 NW Evans Avenue         ","address2":"","city":"Blountstown         ","state":"FL","postal":"32424","phone":"850-643-7250        ","web":"","hours1":"","hours2":"","hours3":""},
{"id":"43","name":"Best of Everything Jewelry and","lat":"26.177427","lng":"-81.799899","address":"3754 Tamiami Tr N             ","address2":"","city":"Naples              ","state":"FL","postal":"34103","phone":"239-595-9593        ","web":"","hours1":"","hours2":"","hours3":""},
{"id":"44","name":"Best of Times                 ","lat":"37.693968","lng":"-97.261715","address":"6452 E Central Ave            ","address2":"","city":"Wichita             ","state":"KS","postal":"67206","phone":"316-634-3805        ","web":"","hours1":"","hours2":"","hours3":""},
{"id":"45","name":"Bethesda North Hosp Gift Shop ","lat":"39.252883","lng":"-84.343707","address":"10500 Montgomery Rd           ","address2":"","city":"Cincinnati          ","state":"OH","postal":"45242","phone":"513-865-1165        ","web":"","hours1":"","hours2":"","hours3":""},
{"id":"46","name":"Bethesda Oak Hospital         ","lat":"39.129517","lng":"-84.495924","address":"619 Oak St                    ","address2":"Oak Leaf Gift Shop"            ,"city":"Cincinnati          ","state":"OH","postal":"45206","phone":"513-569-6244        ","web":"","hours1":"","hours2":"","hours3":""},
{"id":"47","name":"BIG CEDAR LODGE               ","lat":"36.529611","lng":"-93.257775","address":"612 DEVILS POOL ROAD          ","address2":"","city":"Ridgedale           ","state":"MO","postal":"65739","phone":"417-339-5015        ","web":"","hours1":"","hours2":"","hours3":""},
{"id":"48","name":"BLAKEHURST EXCHANGE           ","lat":"39.409946","lng":"-76.623597","address":"1055 W JOPPA RD               ","address2":"","city":"TOWSON,             ","state":"MD","postal":"21204","phone":"410-494-6146        ","web":"","hours1":"","hours2":"","hours3":""},
{"id":"49","name":"Blanchard Valley Hospital GS  ","lat":"41.016598","lng":"-83.650495","address":"1900 S Main Street            ","address2":"","city":"Findlay             ","state":"OH","postal":"45840","phone":"419-425-5755        ","web":"","hours1":"","hours2":"","hours3":""},
{"id":"50","name":"Blingin Buddha                ","lat":"28.155043","lng":"-82.760905","address":"735 Dodecanse Blvd            ","address2":"Ste 31"                        ,"city":"Tarpon Springs      ","state":"FL","postal":"34689","phone":"727-938-6300        ","web":"","hours1":"","hours2":"","hours3":""},
{"id":"51","name":"BLOOMINGAILS                  ","lat":"41.06708","lng":"-76.24884","address":"522 MARTZVILLE ROAD           ","address2":"","city":"Berwick             ","state":"PA","postal":"18603","phone":"570-752-8843        ","web":"","hours1":"","hours2":"","hours3":""},
{"id":"52","name":"BLOSSOM                       ","lat":"28.554865","lng":"-81.197543","address":"12789 WATERFORD LAKES PKWY    ","address2":"","city":"Orlando             ","state":"FL","postal":"32828","phone":"407-617-5211        ","web":"","hours1":"","hours2":"","hours3":""},
{"id":"53","name":"Blue Moon Artisans            ","lat":"41.272708","lng":"-72.535971","address":"52 Pratt Road                 ","address2":"","city":"Clinton             ","state":"CT","postal":"6413","phone":"860-313-0303        ","web":"","hours1":"","hours2":"","hours3":""},
{"id":"54","name":"Boxwood Collection            ","lat":"39.474994","lng":"-76.81916","address":"15 Railroad Avenue            ","address2":"","city":"Glyndon             ","state":"MD","postal":"21071","phone":"410-526-2220        ","web":"","hours1":"","hours2":"","hours3":""},
{"id":"55","name":"Boynton Beach Postal & Gift Ce","lat":"26.513424","lng":"-80.059806","address":"562 E Wool Bright Rd          ","address2":"","city":"Boynton Beach       ","state":"FL","postal":"33435","phone":"561-738-6002        ","web":"","hours1":"","hours2":"","hours3":""},
{"id":"56","name":"BRANDYWINE ACE HARDWARE, LP   ","lat":"39.904079","lng":"-75.628029","address":"1150 POCOPSON ROAD            ","address2":"","city":"West Chester        ","state":"PA","postal":"19382","phone":"610-793-3080        ","web":"","hours1":"","hours2":"","hours3":""},
{"id":"57","name":"Briargrove Pharmacy           ","lat":"29.749792","lng":"-95.496711","address":"6435 San Felipe               ","address2":"","city":"Houston             ","state":"TX","postal":"77057","phone":"713-783-5704        ","web":"","hours1":"","hours2":"","hours3":""},
{"id":"58","name":"Center Gift Shop - Bristol Region","lat":"36.589317","lng":"-82.253885","address":"1 Medical Park Blvd           ","address2":"Center Gift Shop"              ,"city":"Bristol             ","state":"TN","postal":"37620","phone":"                    ","web":"","hours1":"","hours2":"","hours3":""},
{"id":"59","name":"BRUCE COMPANY, THE            ","lat":"43.093068","lng":"-89.511653","address":"2830 PARMENTER ST             ","address2":"","city":"Middleton           ","state":"WI","postal":"53562","phone":"608-836-7041        ","web":"","hours1":"","hours2":"","hours3":""},
{"id":"60","name":"BRYN MAWR REHAB HOSP G/S      ","lat":"40.015612","lng":"-75.526495","address":"414 PAOLI PIKE                ","address2":"","city":"Malvern             ","state":"PA","postal":"19355","phone":"610-251-5425        ","web":"","hours1":"","hours2":"","hours3":""},
{"id":"61","name":"BUBBADAH'S BUYS               ","lat":"40.134304","lng":"-75.32186","address":"1 AMBER CIRCLE                ","address2":"","city":"Norristown          ","state":"PA","postal":"19401","phone":"610-272-5333        ","web":"","hours1":"","hours2":"","hours3":""},
{"id":"62","name":"BUCKMANS GARDEN WORKS         ","lat":"40.282843","lng":"-75.125991","address":"1814 S. EASTON RD.            ","address2":"","city":"Doylestown          ","state":"PA","postal":"18901","phone":"215-348-0877        ","web":"","hours1":"","hours2":"","hours3":""},
{"id":"63","name":"Bungalows Foley               ","lat":"30.405975","lng":"-87.683967","address":"219 Mckenzie                  ","address2":"","city":"Foley               ","state":"AL","postal":"36535","phone":"251-943-8941        ","web":"","hours1":"","hours2":"","hours3":""},
{"id":"64","name":"BURLAP PENGUIN                ","lat":"39.427062","lng":"-87.4084","address":"638 EAST DAVIS DR             ","address2":"","city":"Terre Haute         ","state":"IN","postal":"47802","phone":"812-208-7339","web":"","hours1":"","hours2":"","hours3":""},
{"id":"65","name":"Busy B                        ","lat":"29.90173","lng":"-96.821552","address":"2204 E State Hwy 71           ","address2":"","city":"La Grange           ","state":"TX","postal":"78945","phone":"979-249-5132        ","web":"","hours1":"","hours2":"","hours3":""},
{"id":"66","name":"Butlers Pharmacy              ","lat":"40.072706","lng":"-74.073394","address":"2301 Bridge Avenue            ","address2":"","city":"Point Pleasant Beach","state":"NJ","postal":"8742","phone":"732-892-4488        ","web":"","hours1":"","hours2":"","hours3":""},
{"id":"67","name":"CAMELEON                      ","lat":"42.791753","lng":"-78.751749","address":"3402 ORCHARD PARK ROAD        ","address2":"","city":"Orchard Park        ","state":"NY","postal":"14127","phone":"716-597-4442        ","web":"","hours1":"","hours2":"","hours3":""},
{"id":"68","name":"Candler Hospital Gift Shop    ","lat":"32.028524","lng":"-81.101096","address":"5353 Reynolds St              ","address2":"","city":"Savannah            ","state":"GA","postal":"31405","phone":"912-819-8238        ","web":"","hours1":"","hours2":"","hours3":""},
{"id":"69","name":"Cardsmart                     ","lat":"43.007701","lng":"-78.720048","address":"127 Brandy Wine dr            ","address2":"","city":"Waynesville         ","state":"NY","postal":"14221","phone":"716-873-0245        ","web":"","hours1":"","hours2":"","hours3":""},
{"id":"70","name":"Cardsmart                     ","lat":"29.705838","lng":"-95.439734","address":"3851 Bellaire Blvd            ","address2":"","city":"Houston             ","state":"TX","postal":"77025","phone":"713-662-9898        ","web":"","hours1":"","hours2":"","hours3":""},
{"id":"71","name":"Cardsmart                     ","lat":"33.377345","lng":"-84.558641","address":"540 Crosstown Road            ","address2":"","city":"Peachtree City      ","state":"GA","postal":"30269","phone":"770-486-1222        ","web":"","hours1":"","hours2":"","hours3":""},
{"id":"72","name":"CARDSMART #10                 ","lat":"41.012077","lng":"-80.656604","address":"431 BOARDMAN-CANFIELD         ","address2":"","city":"Youngstown          ","state":"OH","postal":"44512","phone":"330-729-0520","web":"","hours1":"","hours2":"","hours3":""},
{"id":"73","name":"CARDSMART I                   ","lat":"42.53904","lng":"-71.245102","address":"700 BOSTON RD                 ","address2":"","city":"Billerica           ","state":"MA","postal":"1821","phone":"978-667-6861        ","web":"","hours1":"","hours2":"","hours3":""},
{"id":"74","name":"Cardtique at Cards Gifts      ","lat":"40.856793","lng":"-73.208278","address":"87 Route 11                   ","address2":"","city":"Smithtown           ","state":"NY","postal":"11787","phone":"631-979-8963        ","web":"","hours1":"","hours2":"","hours3":""},
{"id":"75","name":"CARMEL VALLEY PHARMACY        ","lat":"32.954042","lng":"-117.230106","address":"12750 CARMEL COUNTRY RD A101  ","address2":"","city":"San Diego           ","state":"CA","postal":"92130","phone":"858-481-4990","web":"","hours1":"","hours2":"","hours3":""},
{"id":"76","name":"CAROLYNS HALLMARK             ","lat":"43.422438","lng":"-95.110507","address":"1609 18TH ST                  ","address2":"GREAT LAKES MALL"              ,"city":"Spirit Lake         ","state":"IA","postal":"51360","phone":"712-336-4525        ","web":"","hours1":"","hours2":"","hours3":""},
{"id":"77","name":"Carousel Shop                 ","lat":"27.74814","lng":"-97.384405","address":"3533 S Alameda Street         ","address2":"","city":"Corpus Christi      ","state":"TX","postal":"78411","phone":"361-694-5013        ","web":"","hours1":"","hours2":"","hours3":""},
{"id":"78","name":"Celebrations (GL)             ","lat":"38.265062","lng":"-85.668183","address":"3632 Brownsboro Road          ","address2":"","city":"Louisville          ","state":"KY","postal":"40207","phone":"502-894-9590        ","web":"","hours1":"","hours2":"","hours3":""},
{"id":"79","name":"Centerpoint Med Center Aux GS ","lat":"39.047816","lng":"-94.348421","address":"19600 East 39th Street        ","address2":"","city":"Independence        ","state":"MO","postal":"64057","phone":"816-698-7000 x7585  ","web":"","hours1":"","hours2":"","hours3":""},
{"id":"80","name":"Chalet Nursery & Garden       ","lat":"42.079594","lng":"-87.752547","address":"3132 Lake Ave                 ","address2":"","city":"Wilmette            ","state":"IL","postal":"60091","phone":"847-256-0561        ","web":"","hours1":"","hours2":"","hours3":""},
{"id":"81","name":"Char-Mae Gift Shop            ","lat":"39.080045","lng":"-84.146418","address":"3000 Hospital Dr              ","address2":"","city":"Batavia             ","state":"OH","postal":"45103","phone":"513-732-8582        ","web":"","hours1":"","hours2":"","hours3":""},
{"id":"82","name":"Chick A D's                   ","lat":"38.245306","lng":"-85.539291","address":"11728 Main St                 ","address2":"","city":"Louisville          ","state":"KY","postal":"40243","phone":"502-245-9525        ","web":"","hours1":"","hours2":"","hours3":""},
{"id":"83","name":"Childrens Mercy Hosp and Clin ","lat":"39.083446","lng":"-94.578703","address":"2401 Gillham Road             ","address2":"","city":"Kansas City         ","state":"MO","postal":"64108","phone":"816-234-3751        ","web":"","hours1":"","hours2":"","hours3":""},
{"id":"84","name":"Chloe Lane Boutique           ","lat":"28.604304","lng":"-81.365589","address":"839 S Orlando Ave             ","address2":"","city":"Winter Park         ","state":"FL","postal":"32789","phone":"407-644-3007        ","web":"","hours1":"","hours2":"","hours3":""},
{"id":"85","name":"CHN Gift Shop                 ","lat":"43.97778","lng":"-88.937356","address":"225 Memorial Dr               ","address2":"","city":"Berlin              ","state":"WI","postal":"54923","phone":"920-361-5522        ","web":"","hours1":"","hours2":"","hours3":""},
{"id":"86","name":"Christmas Tree Hill           ","lat":"39.904589","lng":"-76.714205","address":"2801 South George Street      ","address2":"","city":"York                ","state":"PA","postal":"17403","phone":"717-741-2669        ","web":"","hours1":"","hours2":"","hours3":""},
{"id":"87","name":"Clearfield Pharmacy           ","lat":"41.021926","lng":"-78.435688","address":"307 E Market Street           ","address2":"","city":"Clearfield          ","state":"PA","postal":"16830","phone":"814-765-7841        ","web":"","hours1":"","hours2":"","hours3":""},
{"id":"88","name":"Cleveland Botanical Gardens   ","lat":"41.511779","lng":"-81.609406","address":"11030 East Blvd               ","address2":"Garden Store"                  ,"city":"Cleveland           ","state":"OH","postal":"44106","phone":"216-721-1600 x130   ","web":"","hours1":"","hours2":"","hours3":""},
{"id":"89","name":"Cleveland Orchestra Store     ","lat":"41.506124","lng":"-81.609093","address":"11001 Euclid Avenue           ","address2":"","city":"Cleveland           ","state":"OH","postal":"44106","phone":"216-231-7300        ","web":"","hours1":"","hours2":"","hours3":""},
{"id":"90","name":"Cloverleaf Boutique           ","lat":"34.172636","lng":"-97.173783","address":"3218 W Broadway St            ","address2":"","city":"Ardmore             ","state":"OK","postal":"73401","phone":"580-224-0400        ","web":"","hours1":"","hours2":"","hours3":""},
{"id":"91","name":"Collage Boutique              ","lat":"34.953443","lng":"-83.759044","address":"563 N Main St                 ","address2":"","city":"Hiawassee           ","state":"GA","postal":"30546","phone":"706-896-7997        ","web":"","hours1":"","hours2":"","hours3":""},
{"id":"92","name":"COLORS OF THE WEST            ","lat":"35.25046","lng":"-112.189725","address":"201 WEST RTE 66               ","address2":"","city":"Williams            ","state":"AZ","postal":"86046","phone":"928-890-8182        ","web":"","hours1":"","hours2":"","hours3":""},
{"id":"93","name":"Concord Hospital Gift Shop    ","lat":"43.196562","lng":"-71.562769","address":"250 Pleasant Street           ","address2":"","city":"Concord             ","state":"NH","postal":"3301","phone":"603-225-2711        ","web":"","hours1":"","hours2":"","hours3":""},
{"id":"94","name":"Connors Mercantile            ","lat":"42.143359","lng":"-77.054978","address":"16 East Market Street         ","address2":"","city":"Corning             ","state":"NY","postal":"14830","phone":"607-937-4438        ","web":"","hours1":"","hours2":"","hours3":""},
{"id":"95","name":"Coral Sash                    ","lat":"42.461038","lng":"-83.651688","address":"131 N Lafayette               ","address2":"","city":"South Lyon          ","state":"MI","postal":"48178","phone":"248-573-7800        ","web":"","hours1":"","hours2":"","hours3":""},
{"id":"96","name":"COREY'S HALLMARK              ","lat":"32.660583","lng":"-117.035568","address":"4358 BONITA ROAD              ","address2":"","city":"Bonita              ","state":"CA","postal":"91902","phone":"619-475-9060        ","web":"","hours1":"","hours2":"","hours3":""},
{"id":"97","name":"CORONADO HARDWARE GLASS & PAIN","lat":"32.698228","lng":"-117.173184","address":"140 ORANGE AVE                ","address2":"","city":"Coronado            ","state":"CA","postal":"92118","phone":"619-435-2266","web":"","hours1":"","hours2":"","hours3":""},
{"id":"98","name":"COTTAGE GARDEN                ","lat":"33.541232","lng":"-112.183827","address":"7142 N 58TH AVE               ","address2":"","city":"Glendale            ","state":"AZ","postal":"85301","phone":"623-847-3232        ","web":"","hours1":"","hours2":"","hours3":""},
{"id":"99","name":"Cottage Garden Farm           ","lat":"44.351769","lng":"-89.148922","address":"E957 State Rd 54              ","address2":"","city":"Waupaca             ","state":"WI","postal":"54981","phone":"715-256-0638        ","web":"","hours1":"","hours2":"","hours3":""},
{"id":"100","name":"COTTAGE HILL FLORAL INC       ","lat":"44.62744","lng":"-91.968926","address":"315 W MAIN                    ","address2":"","city":"Durand              ","state":"WI","postal":"54736","phone":"715-672-4321","web":"","hours1":"","hours2":"","hours3":""},
{"id":"101","name":"COTTAGE PLACE GIFT SHOPPE     ","lat":"41.68327","lng":"-86.250635","address":"615 N MICHIGAN ST             ","address2":"","city":"South Bend          ","state":"IN","postal":"46601","phone":"574-647-3369        ","web":"","hours1":"","hours2":"","hours3":""},
{"id":"102","name":"Country Colonial Shop         ","lat":"42.05482","lng":"-72.77037","address":"Box 91 College Hwy            ","address2":"","city":"Southwick           ","state":"MA","postal":"1077","phone":"860-653-3433        ","web":"","hours1":"","hours2":"","hours3":""},
{"id":"103","name":"COUNTRY DAWN                  ","lat":"41.578602","lng":"-75.258732","address":"645 MAIN ST                   ","address2":"","city":"Honesdale           ","state":"PA","postal":"18431","phone":"570-253-4549        ","web":"","hours1":"","hours2":"","hours3":""},
{"id":"104","name":"COUNTRY KETTLE                ","lat":"41.03702","lng":"-75.137753","address":"2523 MILFORD ROAD             ","address2":"","city":"East Stroudsburg    ","state":"PA","postal":"18301","phone":"570-421-8970        ","web":"","hours1":"","hours2":"","hours3":""},
{"id":"105","name":"COUNTRY NORTH GIFTS           ","lat":"46.125779","lng":"-67.839717","address":"17 MARKET SQUARE              ","address2":"","city":"Houlton             ","state":"ME","postal":"4730","phone":"207-532-7986        ","web":"","hours1":"","hours2":"","hours3":""},
{"id":"106","name":"Country Store/Piddles Trading ","lat":"40.76501","lng":"-86.775337","address":"1510 N 6th St                 ","address2":"","city":"Monticello          ","state":"IN","postal":"47960","phone":"574-583-4332        ","web":"","hours1":"","hours2":"","hours3":""},
{"id":"107","name":"COUNTRY TREASURES CHIPPWA FALL","lat":"44.936374","lng":"-91.392558","address":"216 N BRIDGE ST               ","address2":"","city":"Chippewa Falls      ","state":"WI","postal":"54729","phone":"715-723-8883        ","web":"","hours1":"","hours2":"","hours3":""},
{"id":"108","name":"Countryside Gardens           ","lat":"37.034214","lng":"-76.326126","address":"220 E Mercury Blvd            ","address2":"","city":"Hampton             ","state":"VA","postal":"23669","phone":"757-722-9909        ","web":"","hours1":"","hours2":"","hours3":""},
{"id":"109","name":"Crabby Chic                   ","lat":"34.212051","lng":"-77.895211","address":"4107 Oleander Drive           ","address2":"","city":"Wilmington          ","state":"NC","postal":"28403","phone":"910-799-4216        ","web":"","hours1":"","hours2":"","hours3":""},
{"id":"110","name":"Cranberry Country Mall        ","lat":"44.020637","lng":"-90.621439","address":"1510 Eaton Avenue             ","address2":"","city":"Tomah               ","state":"WI","postal":"54660","phone":"608-372-7853        ","web":"","hours1":"","hours2":"","hours3":""},
{"id":"111","name":"Creative Advertising Special  ","lat":"27.929692","lng":"-82.520567","address":"4423 W Clear Ave              ","address2":"","city":"Tampa               ","state":"FL","postal":"33629","phone":"813-287-0013        ","web":"","hours1":"","hours2":"","hours3":""},
{"id":"112","name":"Creme De La Creme             ","lat":"41.799791","lng":"-88.074629","address":"4710-3 Main Street            ","address2":"","city":"Lisle               ","state":"IL","postal":"60532","phone":"312-497-7757        ","web":"","hours1":"","hours2":"","hours3":""},
{"id":"113","name":"Crystalare                    ","lat":"42.387009","lng":"-82.906551","address":"335 Rivard Rd                 ","address2":"","city":"Grosse Pointe       ","state":"MI","postal":"48230","phone":"313-884-4611        ","web":"","hours1":"","hours2":"","hours3":""},
{"id":"114","name":"Cynthia's Hallmark            ","lat":"39.806435","lng":"-85.76995","address":"1584 N State St               ","address2":"","city":"Greenfield          ","state":"IN","postal":"46140","phone":"317-462-6749        ","web":"","hours1":"","hours2":"","hours3":""},
{"id":"115","name":"Cypress Ace Hardware          ","lat":"29.943112","lng":"-95.585357","address":"11655 Jones Road              ","address2":"","city":"Houston             ","state":"TX","postal":"77070","phone":"281-469-8020        ","web":"","hours1":"","hours2":"","hours3":""},
{"id":"116","name":"DAKOTA SCENTS                 ","lat":"43.707527","lng":"-98.014028","address":"2207 S MENTZER ST SUITE 110   ","address2":"","city":"Mitchell            ","state":"SD","postal":"57301","phone":"605-990-3917        ","web":"","hours1":"","hours2":"","hours3":""},
{"id":"117","name":"DAKOTA SENSATIONS             ","lat":"44.375244","lng":"-100.323431","address":"1615 N HARRISON SUITE 24      ","address2":"","city":"Pierre              ","state":"SD","postal":"57501","phone":"605-494-1050        ","web":"","hours1":"","hours2":"","hours3":""},
{"id":"118","name":"Debby's Hallmark #2           ","lat":"35.919715","lng":"-78.777701","address":"8081 Brier Creek Pkwy         ","address2":"","city":"Raleigh             ","state":"NC","postal":"27617","phone":"919-872-7723        ","web":"","hours1":"","hours2":"","hours3":""},
{"id":"119","name":"Debby's Hallmark #3           ","lat":"35.884953","lng":"-78.679147","address":"7412 Creedmoor Rd             ","address2":"","city":"Raleigh             ","state":"NC","postal":"27613","phone":"919-848-9700        ","web":"","hours1":"","hours2":"","hours3":""},
{"id":"120","name":"Debby's Hallmark/Debmar Corp  ","lat":"35.866042","lng":"-78.62038","address":"6116 Falls of Neuse Rd        ","address2":"","city":"Raleigh             ","state":"NC","postal":"27609","phone":"919-872-7723","web":"","hours1":"","hours2":"","hours3":""},
{"id":"121","name":"Decor Envy                    ","lat":"27.63572","lng":"-80.397982","address":"1858 Old Dixie Hwy            ","address2":"","city":"Vero Beach          ","state":"FL","postal":"32960","phone":"772-234-0155        ","web":"","hours1":"","hours2":"","hours3":""},
{"id":"122","name":"DEL MAR GIFTS                 ","lat":"32.995484","lng":"-117.07483","address":"1440 CAMINO DEL MAR           ","address2":"","city":"San Diego           ","state":"CA","postal":"92128","phone":"858-755-4254","web":"","hours1":"","hours2":"","hours3":""},
{"id":"123","name":"DETAILS                       ","lat":"39.613874","lng":"-105.015576","address":"2359 W MAIN ST                ","address2":"","city":"Littleton           ","state":"CO","postal":"80120","phone":"303-703-3884","web":"","hours1":"","hours2":"","hours3":""},
{"id":"124","name":"DETERDING DRUGS               ","lat":"38.199248","lng":"-89.994113","address":"1506 S. MAIN                  ","address2":"","city":"Red Bud             ","state":"IL","postal":"62278","phone":"618-282-6232        ","web":"","hours1":"","hours2":"","hours3":""},
{"id":"125","name":"DIANA'S HALLMARK              ","lat":"40.227231","lng":"-74.662839","address":"1275 HIGHWAY 33               ","address2":"","city":"Trenton             ","state":"NJ","postal":"8690","phone":"609-890-0131        ","web":"","hours1":"","hours2":"","hours3":""},
{"id":"126","name":"Dicks Oldtime 5 & 10          ","lat":"36.644274","lng":"-93.216996","address":"103 W Main                    ","address2":"","city":"Branson             ","state":"MO","postal":"65616","phone":"417-334-2410        ","web":"","hours1":"","hours2":"","hours3":""},
{"id":"127","name":"Divine Idea Bookstore         ","lat":"33.636208","lng":"-112.048183","address":"1500 E Greenway Parkway       ","address2":"","city":"Phoenix             ","state":"AZ","postal":"85022","phone":"602-978-3200        ","web":"","hours1":"","hours2":"","hours3":""},
{"id":"128","name":"DK'S BEACH BOUTIQUE           ","lat":"24.723987","lng":"-81.018349","address":"303 SADOWSKI CAUSEWAY         ","address2":"","city":"Key Colony Beach    ","state":"FL","postal":"33051","phone":"305-922-2493        ","web":"","hours1":"","hours2":"","hours3":""},
{"id":"129","name":"Domke Market                  ","lat":"30.649683","lng":"-88.238023","address":"10260 Kipling Ct N            ","address2":"","city":"Theodore            ","state":"AL","postal":"36582","phone":"251-287-1851        ","web":"","hours1":"","hours2":"","hours3":""},
{"id":"130","name":"Donohoo Pharmacy              ","lat":"38.865421","lng":"-83.904256","address":"114 S Main St                 ","address2":"","city":"Georgetown          ","state":"OH","postal":"45121","phone":"937-378-4844        ","web":"","hours1":"","hours2":"","hours3":""},
{"id":"131","name":"Dor Anne's Gift & Gourmet     ","lat":"41.037848","lng":"-83.65011","address":"327 S Main St                 ","address2":"","city":"Findlay             ","state":"OH","postal":"45840","phone":"440-543-0884        ","web":"","hours1":"","hours2":"","hours3":""},
{"id":"132","name":"DUNDALK FLORIST               ","lat":"39.281676","lng":"-76.517968","address":"7233 GERMAN HILL ROAD         ","address2":"","city":"Dundalk             ","state":"MD","postal":"21222","phone":"410-284-1600        ","web":"","hours1":"","hours2":"","hours3":""},
{"id":"133","name":"Dwellings Home & Gift         ","lat":"41.427537","lng":"-87.345741","address":"1166 E Summit Street          ","address2":"","city":"Crown Point         ","state":"IN","postal":"46307","phone":"219-663-9660        ","web":"","hours1":"","hours2":"","hours3":""},
{"id":"134","name":"Earth Wind and Sea            ","lat":"32.682988","lng":"-117.17847","address":"1303 Orange Ave               ","address2":"","city":"Coronado            ","state":"CA","postal":"92118","phone":"619-522-9633        ","web":"","hours1":"","hours2":"","hours3":""},
{"id":"135","name":"Econo Med Pharmacy            ","lat":"36.261165","lng":"-91.546961","address":"1 Choctaw Center              ","address2":"","city":"Cherokee Village    ","state":"AR","postal":"72529","phone":"870-856-4696        ","web":"","hours1":"","hours2":"","hours3":""},
{"id":"136","name":"Edward's Hallmark             ","lat":"34.242527","lng":"-77.82943","address":"6875 MAIN STREET              ","address2":"MAYFAIRE TOWN CENTER"          ,"city":"Wilmington          ","state":"NC","postal":"28405","phone":"910-509-0557        ","web":"","hours1":"","hours2":"","hours3":""},
{"id":"137","name":"Edwins Gifts                  ","lat":"42.086462","lng":"-71.409612","address":"341 W Central Street          ","address2":"Franklin Plaza West"           ,"city":"Franklin            ","state":"MA","postal":"2038","phone":"508-528-1477        ","web":"","hours1":"","hours2":"","hours3":""},
{"id":"138","name":"Eighty Five Broad             ","lat":"31.231259","lng":"-84.210719","address":"54 W Broad St                 ","address2":"","city":"Camilla             ","state":"GA","postal":"31730","phone":"229-336-0805        ","web":"","hours1":"","hours2":"","hours3":""},
{"id":"139","name":"Eldon Drug & Gifts            ","lat":"38.348764","lng":"-92.579321","address":"101 S Maple                   ","address2":"","city":"Eldon               ","state":"MO","postal":"65026","phone":"573-392-4588        ","web":"","hours1":"","hours2":"","hours3":""},
{"id":"140","name":"Elements of Design            ","lat":"29.289588","lng":"-81.045453","address":"62 East Granada Blvd          ","address2":"","city":"Ormond Beach        ","state":"FL","postal":"32176","phone":"386-673-2225        ","web":"","hours1":"","hours2":"","hours3":""},
{"id":"141","name":"Eloise Trading Co LLC         ","lat":"35.131619","lng":"-79.427087","address":"100 West Main                 ","address2":"","city":"Aberdeen            ","state":"NC","postal":"28315","phone":"910-637-0307        ","web":"","hours1":"","hours2":"","hours3":""},
{"id":"142","name":"Emu Country Farm Store        ","lat":"40.172641","lng":"-76.81643","address":"393 Valley Road               ","address2":"","city":"Etters              ","state":"PA","postal":"17319","phone":"717-938-3308        ","web":"","hours1":"","hours2":"","hours3":""},
{"id":"143","name":"Enchanted Cottage             ","lat":"35.362113","lng":"-97.547492","address":"10600 S Pennsylvania #12      ","address2":"","city":"Oklahoma City       ","state":"OK","postal":"73170","phone":"405-703-8448        ","web":"","hours1":"","hours2":"","hours3":""},
{"id":"144","name":"Engravables                   ","lat":"31.579353","lng":"-90.459279","address":"769 Brookway Blvd             ","address2":"","city":"Brookhaven          ","state":"MS","postal":"39601","phone":"601-833-9985        ","web":"","hours1":"","hours2":"","hours3":""},
{"id":"145","name":"Epiphany                      ","lat":"41.242679","lng":"-81.442364","address":"105 First Street              ","address2":"","city":"Hudson              ","state":"OH","postal":"44236","phone":"330-655-0191        ","web":"","hours1":"","hours2":"","hours3":""},
{"id":"146","name":"ERINS HALLMARK                ","lat":"33.70101","lng":"-117.95408","address":"18030 BROOKHURST              ","address2":"","city":"Fountain Valley     ","state":"CA","postal":"92708","phone":"714-963-3116        ","web":"","hours1":"","hours2":"","hours3":""},
{"id":"147","name":"Everett & Allies Gift Shoppe  ","lat":"37.976094","lng":"-86.150332","address":"2141 Brandenburg Road         ","address2":"","city":"Brandenburg         ","state":"KY","postal":"40108","phone":"                    ","web":"","hours1":"","hours2":"","hours3":""},
{"id":"148","name":"EVERYDAY BLESSINGS GIFT SHOPPE","lat":"40.540129","lng":"-76.954932","address":"510 UNION STREET              ","address2":"","city":"Millersburg         ","state":"PA","postal":"17061","phone":"717-692-3253        ","web":"","hours1":"","hours2":"","hours3":""},
{"id":"149","name":"Everything Unique             ","lat":"33.137576","lng":"-95.601582","address":"124 Main Street               ","address2":"","city":"Sulphur Springs     ","state":"TX","postal":"75482","phone":"903-885-7016        ","web":"","hours1":"","hours2":"","hours3":""},
{"id":"150","name":"Fabric Hut & Gift Gallery     ","lat":"38.025298","lng":"-78.003283","address":"203 West Main Street          ","address2":"","city":"Louisa              ","state":"VA","postal":"23093","phone":"540-967-1630        ","web":"","hours1":"","hours2":"","hours3":""},
{"id":"151","name":"Family Jewels                 ","lat":"29.52247","lng":"-95.215594","address":"206 Pine Willow Court         ","address2":"","city":"Friendswood         ","state":"TX","postal":"77546","phone":"281-482-5611        ","web":"","hours1":"","hours2":"","hours3":""},
{"id":"152","name":"Firelands Reg Med Cntr Gift Sh","lat":"41.446383","lng":"-82.7086","address":"1111Hayes Avenue              ","address2":"","city":"Sandusky            ","state":"OH","postal":"44870","phone":"419-557-5469        ","web":"","hours1":"","hours2":"","hours3":""},
{"id":"153","name":"Fisher Pharmacy               ","lat":"42.122121","lng":"-77.948079","address":"138 N Main Street             ","address2":"","city":"Wellsville          ","state":"NY","postal":"14895","phone":"585-593-2611        ","web":"","hours1":"","hours2":"","hours3":""},
{"id":"154","name":"Five Wacky Women              ","lat":"39.470933","lng":"-76.639141","address":"10255 York Road               ","address2":"","city":"Cockeysville        ","state":"MD","postal":"21030","phone":"410-683-8333        ","web":"","hours1":"","hours2":"","hours3":""},
{"id":"155","name":"Fl Hosp N Pinellas Gift Shop  ","lat":"28.133068","lng":"-82.757392","address":"1395 S Pinellas Avenue        ","address2":"","city":"Tarpon Springs      ","state":"FL","postal":"34689","phone":"727-943-9805        ","web":"","hours1":"","hours2":"","hours3":""},
{"id":"156","name":"Flowers By Louise             ","lat":"61.581305","lng":"-149.374335","address":"290 Yenlo Avenue              ","address2":"Meta Rose Square R2"           ,"city":"Wasilla             ","state":"AK","postal":"99654","phone":"907-376-4939        ","web":"","hours1":"","hours2":"","hours3":""},
{"id":"157","name":"FOR GOODNESS SAKE             ","lat":"42.470532","lng":"-92.357071","address":"2118 KIMBALL AVE              ","address2":"","city":"Waterloo            ","state":"IA","postal":"50702","phone":"319-230-1131        ","web":"","hours1":"","hours2":"","hours3":""},
{"id":"158","name":"FORSYTH MEDICAL CENTER GIFT SH","lat":"36.074014","lng":"-80.298408","address":"3333 SILAS CREEK PKWY         ","address2":"","city":"Winston Salem       ","state":"NC","postal":"27103","phone":"336-718-5192        ","web":"","hours1":"","hours2":"","hours3":""},
{"id":"159","name":"Freedom Drug                  ","lat":"39.235452","lng":"-76.441923","address":"7568 North Point Road         ","address2":"","city":"Sparrows Point      ","state":"MD","postal":"21219","phone":"410-477-5130        ","web":"","hours1":"","hours2":"","hours3":""},
{"id":"160","name":"Frenchys Off The Hook         ","lat":"27.981954","lng":"-82.826195","address":"49 Baymont Street             ","address2":"","city":"Clearwater Beach    ","state":"FL","postal":"33767","phone":"727-4461522         ","web":"","hours1":"","hours2":"","hours3":""},
{"id":"161","name":"Fresh Floral & Gift Company   ","lat":"42.508486","lng":"-78.666266","address":"27 East Main Street           ","address2":"","city":"Springville         ","state":"NY","postal":"14144","phone":"716-592-5015        ","web":"","hours1":"","hours2":"","hours3":""},
{"id":"162","name":"Fresher Delights              ","lat":"45.870165","lng":"-89.709916","address":"415 Oneida Street                   ","address2":"","city":"Minocqua            ","state":"WI","postal":"54548","phone":"715-356-1888        ","web":"","hours1":"","hours2":"","hours3":""},
{"id":"163","name":"FRIENDS OF THE FONDDULAC SENIO","lat":"43.77617","lng":"-88.441757","address":"151 EAST FIRST STREET         ","address2":"","city":"Fond du Lac         ","state":"WI","postal":"54935","phone":"920-322-3638        ","web":"","hours1":"","hours2":"","hours3":""},
{"id":"164","name":"Frill Seekers                 ","lat":"37.579538","lng":"-77.515063","address":"5807 Patterson Ave            ","address2":"","city":"Richmond            ","state":"VA","postal":"23226","phone":"804-288-5807        ","web":"","hours1":"","hours2":"","hours3":""},
{"id":"165","name":"Fulton Station Jewelers       ","lat":"39.154144","lng":"-76.925204","address":"11845 Scaggsville Rd               ","address2":"","city":"Fulton              ","state":"MD","postal":"20759","phone":"301-498-0606        ","web":"","hours1":"","hours2":"","hours3":""},
{"id":"166","name":"FWINTERS                      ","lat":"33.748308","lng":"-84.397889","address":"230 SPRING ST                 ","address2":"STE 1801"                      ,"city":"Atlanta             ","state":"GA","postal":"30303","phone":"404-836-4932        ","web":"","hours1":"","hours2":"","hours3":""},
{"id":"167","name":"Gablers Drug                  ","lat":"39.894699","lng":"-79.739989","address":"250 S Mount Vernon Ave        ","address2":"","city":"Uniontown           ","state":"PA","postal":"15401","phone":"724-437-9700        ","web":"","hours1":"","hours2":"","hours3":""},
{"id":"168","name":"Gabriels of Chestertown       ","lat":"39.207691","lng":"-76.067578","address":"207 S Cross Street            ","address2":"Suite 100"                     ,"city":"Chestertown         ","state":"MD","postal":"21620","phone":"410-778-2123        ","web":"","hours1":"","hours2":"","hours3":""},
{"id":"169","name":"Gehlhausen Floral Wholesalers ","lat":"37.966037","lng":"-87.492833","address":"735 S Greenriver Road         ","address2":"","city":"Evansville          ","state":"IN","postal":"47715","phone":"812-428-2320        ","web":"","hours1":"","hours2":"","hours3":""},
{"id":"170","name":"General Store of Minnetonka   ","lat":"44.922901","lng":"-93.462752","address":"14401 Highway 7               ","address2":"","city":"Minnetonka          ","state":"MN","postal":"55345","phone":"952-935-7131        ","web":"","hours1":"","hours2":"","hours3":""},
{"id":"171","name":"GEORGES PHARMACY              ","lat":"39.419444","lng":"-85.01296","address":"480 MAIN ST                   ","address2":"","city":"Brookville          ","state":"IN","postal":"47012","phone":"765-647-6251        ","web":"","hours1":"","hours2":"","hours3":""},
{"id":"172","name":"GIFT CORNER                   ","lat":"40.945362","lng":"-73.022922","address":"157 N COUNTRY RD              ","address2":"","city":"Mount Sinai         ","state":"NY","postal":"11766","phone":"631-928-9012        ","web":"","hours1":"","hours2":"","hours3":""},
{"id":"173","name":"GIFT SHOP AT WRIGHT'S FARM    ","lat":"41.988338","lng":"-71.606985","address":"84 INMAN RD - NASONVILLE      ","address2":"","city":"Harrisville         ","state":"RI","postal":"2830","phone":"401-769-2856        ","web":"","hours1":"","hours2":"","hours3":""},
{"id":"174","name":"GIFT STORE, THE               ","lat":"29.73682","lng":"-95.572856","address":"11152 A WESTHEIMER RD         ","address2":"","city":"Houston             ","state":"TX","postal":"77042","phone":"713-781-6245        ","web":"","hours1":"","hours2":"","hours3":""},
{"id":"175","name":"Gift-Tiques Decor             ","lat":"36.270789","lng":"-92.550392","address":"10413 Highway 62 East                 ","address2":"","city":"Flippin             ","state":"AR","postal":"72634","phone":"870-453-4438        ","web":"","hours1":"","hours2":"","hours3":""},
{"id":"176","name":"GIFTASTIC                     ","lat":"32.979315","lng":"-96.69137","address":"2831 E PRES. GEORGE BUSH HWY  ","address2":"","city":"Richardson          ","state":"TX","postal":"75082","phone":"469-204-1160","web":"","hours1":"","hours2":"","hours3":""},
{"id":"177","name":"Gingerbread House             ","lat":"36.577862","lng":"-79.429608","address":"1799 Memorial Drive           ","address2":"","city":"Danville            ","state":"VA","postal":"24541","phone":"434-791-2700        ","web":"","hours1":"","hours2":"","hours3":""},
{"id":"178","name":"Glam Sparkle & Glitz          ","lat":"26.188919","lng":"-80.144438","address":"211 Commercial Blvd           ","address2":"","city":"Fort Lauderdale     ","state":"FL","postal":"33308","phone":"954-351-9171        ","web":"","hours1":"","hours2":"","hours3":""},
{"id":"179","name":"Glass Box                     ","lat":"39.68684","lng":"-75.679885","address":"4755 Ogletown-Stanton Rd      ","address2":"","city":"Newark              ","state":"DE","postal":"19718","phone":"302-733-1100        ","web":"","hours1":"","hours2":"","hours3":""},
{"id":"180","name":"GLOUCESTER PHARMACY           ","lat":"37.417874","lng":"-76.545806","address":"7453 Hargett Blvd                   ","address2":"","city":"Gloucester          ","state":"VA","postal":"23061","phone":"804-694-5815        ","web":"","hours1":"","hours2":"","hours3":""},
{"id":"181","name":"Glovers RX                    ","lat":"43.633795","lng":"-84.226894","address":"4000 Jefferson                ","address2":"","city":"Midland             ","state":"MI","postal":"48640","phone":"989-839-9943        ","web":"","hours1":"","hours2":"","hours3":""},
{"id":"182","name":"Goochland Pharmacy            ","lat":"37.725416","lng":"-77.995","address":"Rt 522 Box 166                ","address2":"","city":"Goochland           ","state":"VA","postal":"23063","phone":"804-556-3607        ","web":"","hours1":"","hours2":"","hours3":""},
{"id":"183","name":"GOOD AL DAZE                  ","lat":"37.333439","lng":"-119.650085","address":"40276 HWY 41 #C               ","address2":"","city":"Oakhurst            ","state":"CA","postal":"93644","phone":"                    ","web":"","hours1":"","hours2":"","hours3":""},
{"id":"184","name":"GOOD THINGS FROM THE HEART    ","lat":"43.293889","lng":"-87.986639","address":"W62 N 591 WASHINGTON AVE      ","address2":"","city":"Cedarburg           ","state":"WI","postal":"53012","phone":"920-901-1951        ","web":"","hours1":"","hours2":"","hours3":""},
{"id":"185","name":"Grace Annas Boutique          ","lat":"29.716813","lng":"-95.416674","address":"5501 Kelvin Drive             ","address2":"","city":"Houston             ","state":"TX","postal":"77005","phone":"713-808-9599        ","web":"","hours1":"","hours2":"","hours3":""},
{"id":"186","name":"Gracies                       ","lat":"29.307233","lng":"-94.793457","address":"2228 Strand St                ","address2":"","city":"Galveston           ","state":"TX","postal":"77550","phone":"409-762-2515        ","web":"","hours1":"","hours2":"","hours3":""},
{"id":"187","name":"GRANBY CORNER GIFT SHOP       ","lat":"34.004744","lng":"-81.115371","address":"2720 SUNSET BLVD              ","address2":"LEXINGTON MEDICAL CENTER"      ,"city":"West Columbia       ","state":"SC","postal":"29169","phone":"803-936-8911        ","web":"","hours1":"","hours2":"","hours3":""},
{"id":"188","name":"GRAVES DRUGS                  ","lat":"37.060063","lng":"-97.038822","address":"212 SOUTH SUMMIT ST           ","address2":"","city":"Arkansas City       ","state":"KS","postal":"67005","phone":"620-442-2300        ","web":"","hours1":"","hours2":"","hours3":""},
{"id":"189","name":"Great Northern Trading Co     ","lat":"43.124886","lng":"-85.470993","address":"10 Squires St                 ","address2":"","city":"Rockford            ","state":"MI","postal":"49341","phone":"616-866-9232        ","web":"","hours1":"","hours2":"","hours3":""},
{"id":"190","name":"Gretels                       ","lat":"40.464212","lng":"-86.934559","address":"1530 Win Hentschel Blvd       ","address2":"","city":"West Lafayette      ","state":"IN","postal":"47906","phone":"765-464-8970        ","web":"","hours1":"","hours2":"","hours3":""},
{"id":"191","name":"GROSSMONT PHARMACY            ","lat":"32.780879","lng":"-117.009776","address":"5565 GROSSMONT CENTER DR      ","address2":"Suite 150"                     ,"city":"La Mesa             ","state":"CA","postal":"91942","phone":"619-462-2400","web":"","hours1":"","hours2":"","hours3":""},
{"id":"192","name":"HACKMAN'S BIBLE BOOK STORE    ","lat":"40.642609","lng":"-75.48377","address":"1341 MICKLEY RD               ","address2":"","city":"WHITEHALL           ","state":"PA","postal":"18052-4698","phone":"610-264-8600        ","web":"","hours1":"","hours2":"","hours3":""},
{"id":"193","name":"Hannah Bays                   ","lat":"29.948364","lng":"-93.921654","address":"4343 Lincoln Ave              ","address2":"","city":"Groves              ","state":"TX","postal":"77619","phone":"409-433-5490        ","web":"","hours1":"","hours2":"","hours3":""},
{"id":"194","name":"Happy House Cards & Gifts     ","lat":"42.280881","lng":"-83.782077","address":"2539 Jackson Rd               ","address2":"","city":"Ann Arbor           ","state":"MI","postal":"48103","phone":"734-662-9635        ","web":"","hours1":"","hours2":"","hours3":""},
{"id":"195","name":"Happy Hunter                  ","lat":"36.123757","lng":"-95.9654","address":"1805 Forest Blvd              ","address2":"","city":"Tulsa               ","state":"OK","postal":"74114","phone":"918-749-4793        ","web":"","hours1":"","hours2":"","hours3":""},
{"id":"196","name":"Harleysville Ace Hardware     ","lat":"40.278417","lng":"-75.38573","address":"467 Main Street               ","address2":"","city":"Harleysville        ","state":"PA","postal":"19438","phone":"                    ","web":"","hours1":"","hours2":"","hours3":""},
{"id":"197","name":"Hartz Honey Hole              ","lat":"34.277863","lng":"-92.092738","address":"7106 Dollarway Road           ","address2":"","city":"White Hall          ","state":"AR","postal":"71602","phone":"870-247-2402        ","web":"","hours1":"","hours2":"","hours3":""},
{"id":"198","name":"HAYNES HARDWARE               ","lat":"35.093497","lng":"-92.467087","address":"1085 MORNINGSIDE DR           ","address2":"","city":"Conway              ","state":"AR","postal":"72034","phone":"501-327-2400","web":"","hours1":"","hours2":"","hours3":""},
{"id":"199","name":"HENRY FORD WYANDOTTE HSP GS   ","lat":"42.211831","lng":"-83.149267","address":"2333 BIDDLE AVE               ","address2":"","city":"Wyandotte           ","state":"MI","postal":"48192","phone":"734-246-9541        ","web":"","hours1":"","hours2":"","hours3":""},
{"id":"200","name":"HENRY MAYO NEWHALL HOSPITAL   ","lat":"34.395397","lng":"-118.554862","address":"23845 MCBEAN PKWY             ","address2":"","city":"Valencia            ","state":"CA","postal":"91355","phone":"661-253-8287        ","web":"","hours1":"","hours2":"","hours3":""},
{"id":"201","name":"Hillside Hospital Gift Shop   ","lat":"41.249273","lng":"-80.73754","address":"8747 Squires Lane Northeast   ","address2":"","city":"Warren              ","state":"OH","postal":"44484","phone":"330-841-3784        ","web":"","hours1":"","hours2":"","hours3":""},
{"id":"202","name":"Hissyfits                     ","lat":"31.266192","lng":"-85.45263","address":"110 Dunwoody Pl               ","address2":"","city":"Dothan              ","state":"AL","postal":"36303","phone":"334-677-1558        ","web":"","hours1":"","hours2":"","hours3":""},
{"id":"203","name":"HNK Enterprises               ","lat":"40.845069","lng":"-73.173482","address":"587 Nesconset Hwy             ","address2":"","city":"Hauppauge           ","state":"NY","postal":"11788","phone":"631-780-6455        ","web":"","hours1":"","hours2":"","hours3":""},
{"id":"204","name":"Homestead Decor               ","lat":"44.468","lng":"-87.988016","address":"2058 Allouez Ave              ","address2":"","city":"Green Bay           ","state":"WI","postal":"54311","phone":"920-469-2530        ","web":"","hours1":"","hours2":"","hours3":""},
{"id":"205","name":"HOUSE OF CANDLES              ","lat":"40.994791","lng":"-75.396445","address":"3371 RT 715 NORTH             ","address2":"","city":"Henryville          ","state":"PA","postal":"18332","phone":"570-629-1953        ","web":"","hours1":"","hours2":"","hours3":""},
{"id":"206","name":"Howard Young Med Ctr          ","lat":"45.89422","lng":"-89.701827","address":"240 Maple Street                ","address2":"","city":"Woodruff            ","state":"WI","postal":"54568","phone":"715-356-8571        ","web":"","hours1":"","hours2":"","hours3":""},
{"id":"207","name":"HUGGABLES                     ","lat":"40.589554","lng":"-74.685411","address":"3150 ROUTE 22 W - #4          ","address2":"","city":"Somerville          ","state":"NJ","postal":"8876","phone":"908-231-8303        ","web":"","hours1":"","hours2":"","hours3":""},
{"id":"208","name":"Hunter Museum of American Art ","lat":"35.186358","lng":"-85.4417","address":"10 Bluff View                 ","address2":"","city":"Chattanooga         ","state":"TN","postal":"37403","phone":"423-785-4086        ","web":"","hours1":"","hours2":"","hours3":""},
{"id":"209","name":"INDIGO-GA                     ","lat":"34.879452","lng":"-83.400919","address":"75 N. MAIN ST                 ","address2":"","city":"Clayton             ","state":"GA","postal":"30525","phone":"404-957-1787        ","web":"","hours1":"","hours2":"","hours3":""},
{"id":"210","name":"INOVA LOUDOUN HOSPITAL        ","lat":"39.073918","lng":"-77.478043","address":"44045 RIVERSIDE PARKWAY       ","address2":"THE GIFT SHOP - LADIES BOARD"  ,"city":"Leesburg            ","state":"VA","postal":"20176","phone":"703-858-6663        ","web":"","hours1":"","hours2":"","hours3":""},
{"id":"211","name":"Inside Irwins                 ","lat":"34.964735","lng":"-81.894257","address":"147 Fernwood Drive            ","address2":"","city":"Spartanburg         ","state":"SC","postal":"29307","phone":"864-582-8650        ","web":"","hours1":"","hours2":"","hours3":""},
{"id":"212","name":"INSPIRA HEALTH NETWORK        ","lat":"39.588436","lng":"-75.179408","address":"501 W FRONT STREET            ","address2":"","city":"Elmer               ","state":"NJ","postal":"8318","phone":"856-363-1738        ","web":"","hours1":"","hours2":"","hours3":""},
{"id":"213","name":"INSPIRA MEDICAL CENTER        ","lat":"39.435907","lng":"-75.219188","address":"333 IRVING AVENUE             ","address2":"","city":"Bridgeton           ","state":"NJ","postal":"8302","phone":"856-641-7736        ","web":"","hours1":"","hours2":"","hours3":""},
{"id":"214","name":"Interior Expressions By Design","lat":"43.223301","lng":"-77.696653","address":"1100 Long Pond Rd #106        ","address2":"","city":"Rochester           ","state":"NY","postal":"14626","phone":"585-225-6757        ","web":"","hours1":"","hours2":"","hours3":""},
{"id":"215","name":"Interiors By Design           ","lat":"26.644107","lng":"-81.870587","address":"2743 First St Unit 2406       ","address2":"","city":"Fort Myers          ","state":"FL","postal":"33908","phone":"239-540-4480        ","web":"","hours1":"","hours2":"","hours3":""},
{"id":"216","name":"Island Fresh                  ","lat":"27.532234","lng":"-82.73188","address":"101 South Bay Blvd            ","address2":"","city":"Anna Maria          ","state":"FL","postal":"34216","phone":"941-779-0011        ","web":"","hours1":"","hours2":"","hours3":""},
{"id":"217","name":"Island Trendz                 ","lat":"24.899087","lng":"-80.657076","address":"80001 Overseas Hwy            ","address2":"","city":"Islamorada          ","state":"FL","postal":"33036","phone":"561-628-6989        ","web":"","hours1":"","hours2":"","hours3":""},
{"id":"218","name":"It's Sew Wright               ","lat":"35.581801","lng":"-77.369056","address":"801 Red Banks Rd              ","address2":"","city":"Greenville          ","state":"NC","postal":"27858","phone":"252-493-0000        ","web":"","hours1":"","hours2":"","hours3":""},
{"id":"219","name":"J & J Pharmacy                ","lat":"36.314853","lng":"-95.621895","address":"977 W Will Rogers Blvd        ","address2":"","city":"Claremore           ","state":"OK","postal":"74017","phone":"918-341-1184        ","web":"","hours1":"","hours2":"","hours3":""},
{"id":"220","name":"Jabos Ace Hardware            ","lat":"32.934411","lng":"-97.215341","address":"1580 Keller Pkwy              ","address2":"","city":"Keller              ","state":"TX","postal":"76248","phone":"972-462-8668        ","web":"","hours1":"","hours2":"","hours3":""},
{"id":"221","name":"Jack's Drug Dothan            ","lat":"31.201524","lng":"-85.435277","address":"1909 Honeysuckle Rd           ","address2":"","city":"Dothan              ","state":"AL","postal":"36305","phone":"334-836-0890        ","web":"","hours1":"","hours2":"","hours3":""},
{"id":"222","name":"Jack's Floral & Gifts         ","lat":"45.105892","lng":"-87.617079","address":"1401 8th Avenue               ","address2":"","city":"Menominee           ","state":"MI","postal":"49858","phone":"906-863-5575        ","web":"","hours1":"","hours2":"","hours3":""},
{"id":"223","name":"Jackie Hoggan                 ","lat":"33.824084","lng":"-118.11861","address":"3659 Radnor Avenue            ","address2":"","city":"Long Beach          ","state":"CA","postal":"90808","phone":"562-429-7017        ","web":"","hours1":"","hours2":"","hours3":""},
{"id":"224","name":"JE'RIEL FASHIONS              ","lat":"41.233061","lng":"-80.480806","address":"1550 EAST STATE ST            ","address2":"","city":"Hermitage           ","state":"PA","postal":"16148","phone":"724-981-0551        ","web":"","hours1":"","hours2":"","hours3":""},
{"id":"225","name":"Jewelry Box                   ","lat":"33.812942","lng":"-92.412544","address":"301 N Main Street       ","address2":"","city":"Fordyce             ","state":"AR","postal":"71742","phone":"870-352-2094        ","web":"","hours1":"","hours2":"","hours3":""},
{"id":"226","name":"Jewelry Collection            ","lat":"40.90042","lng":"-73.351057","address":"75 Main Street                ","address2":"","city":"Northport           ","state":"NY","postal":"11768","phone":"631-754-1116        ","web":"","hours1":"","hours2":"","hours3":""},
{"id":"227","name":"Joelles Hallmark              ","lat":"42.07828","lng":"-88.019026","address":"3118 Kirchoff Rd              ","address2":"","city":"Rolling Meadows     ","state":"IL","postal":"60008","phone":"847-797-1199        ","web":"","hours1":"","hours2":"","hours3":""},
{"id":"228","name":"JOHNSONS GIFTS & COLLECTIBLES ","lat":"45.180174","lng":"-89.68549","address":"1023 E MAIN                   ","address2":"","city":"Merrill             ","state":"WI","postal":"54452","phone":"715-539-2772        ","web":"","hours1":"","hours2":"","hours3":""},
{"id":"229","name":"Jordan Pharmacy               ","lat":"31.702925","lng":"-98.124632","address":"107 N Rice St                 ","address2":"","city":"Hamilton            ","state":"TX","postal":"76531","phone":"254-386-3111        ","web":"","hours1":"","hours2":"","hours3":""},
{"id":"230","name":"Joys Hallmark                 ","lat":"39.915267","lng":"-74.925018","address":"230 N Maple Avenue            ","address2":"","city":"Marlton             ","state":"NJ","postal":"8053","phone":"856-596-6201        ","web":"","hours1":"","hours2":"","hours3":""},
{"id":"231","name":"JULIE'S HALLMARK              ","lat":"33.753806","lng":"-116.303794","address":"42-212 WASHINGTON ST          ","address2":"","city":"Indio               ","state":"CA","postal":"92203","phone":"760-345-9500        ","web":"","hours1":"","hours2":"","hours3":""},
{"id":"232","name":"JUNIOR BOARD SHOP, THE        ","lat":"38.361927","lng":"-75.598896","address":"100 E CARROLL ST              ","address2":"PENINSULA REGIONAL MEDICAL CTR","city":"Salisbury           ","state":"MD","postal":"21801","phone":"410-543-7261        ","web":"","hours1":"","hours2":"","hours3":""},
{"id":"233","name":"Juno Shoe Girl                ","lat":"27.060429","lng":"-80.129834","address":"11766 SE Dixie Hwy            ","address2":"","city":"Hobe Sound          ","state":"FL","postal":"33455","phone":"772-675-4877        ","web":"","hours1":"","hours2":"","hours3":""},
{"id":"234","name":"Just A Sercy                  ","lat":"34.743151","lng":"-82.260042","address":"109 Hillcrest Ave             ","address2":"","city":"Simpsonville        ","state":"SC","postal":"29681","phone":"864-962-9300        ","web":"","hours1":"","hours2":"","hours3":""},
{"id":"235","name":"KAREN'S HALLMARK              ","lat":"33.784497","lng":"-111.925716","address":"32531 N SCOTTSDALE RD #115    ","address2":"","city":"Scottsdale          ","state":"AZ","postal":"85266","phone":"480-595-9619        ","web":"","hours1":"","hours2":"","hours3":""},
{"id":"236","name":"KATIES HALLMARK - OAK LAWN    ","lat":"41.697681","lng":"-87.740132","address":"10730 S CICERO AVENUE         ","address2":"","city":"Oak Lawn            ","state":"IL","postal":"60453","phone":"708-425-0552        ","web":"","hours1":"","hours2":"","hours3":""},
{"id":"237","name":"KAY'S HALLMARK                ","lat":"42.591012","lng":"-71.205259","address":"1900 MAIN STREET              ","address2":"","city":"Tewksbury           ","state":"MA","postal":"1876","phone":"603-778-4991        ","web":"","hours1":"","hours2":"","hours3":""},
{"id":"238","name":"KIM LINK/STICKS AND STONES    ","lat":"39.377208","lng":"-84.337933","address":"4409 VILLAGE RIDGE DR         ","address2":"","city":"Mason               ","state":"OH","postal":"45040","phone":"513-932-1935        ","web":"","hours1":"","hours2":"","hours3":""},
{"id":"239","name":"KIMBALL FARMS                 ","lat":"42.550285","lng":"-71.461512","address":"400 LITTLETON ROAD            ","address2":"","city":"Westford            ","state":"MA","postal":"1886","phone":"978-486-3891        ","web":"","hours1":"","hours2":"","hours3":""},
{"id":"240","name":"KNOLLWOOD GARDEN CENTER       ","lat":"39.735591","lng":"-84.074598","address":"3766 Dayton Xenia Rd                ","address2":"","city":"Dayton              ","state":"OH","postal":"45432","phone":"888-565-9663        ","web":"","hours1":"","hours2":"","hours3":""},
{"id":"241","name":"Knotting Hill                 ","lat":"33.747941","lng":"-78.817471","address":"7753 N Kings Hwy              ","address2":"","city":"Myrtle Beach        ","state":"SC","postal":"29572","phone":"843-916-4455        ","web":"","hours1":"","hours2":"","hours3":""},
{"id":"242","name":"Korner Gift Shop/Rex Healthcar","lat":"35.815616","lng":"-78.703837","address":"4420 Lake Boone Trail         ","address2":"","city":"Raleigh             ","state":"NC","postal":"27607","phone":"919-784-3411        ","web":"","hours1":"","hours2":"","hours3":""},
{"id":"243","name":"KURTH COTTAGE GIFT SHOP       ","lat":"40.984735","lng":"-74.101403","address":"223 NORTH VAN DIEN AVENUE     ","address2":"VALLEY HOSPITAL"               ,"city":"Ridgewood           ","state":"NJ","postal":"7450","phone":"201-447-8598        ","web":"","hours1":"","hours2":"","hours3":""},
{"id":"244","name":"La Playa Beach and Golf Resort","lat":"26.261378","lng":"-81.824084","address":"9891 Gulf Shore Drive         ","address2":"","city":"Naples              ","state":"FL","postal":"34108","phone":"239-598-5714        ","web":"","hours1":"","hours2":"","hours3":""},
{"id":"245","name":"Lamplighter Gifts             ","lat":"42.995085","lng":"-82.4288","address":"500 Thomas Edison Parkway     ","address2":"","city":"Port Huron          ","state":"MI","postal":"48060","phone":"810-987-8050        ","web":"","hours1":"","hours2":"","hours3":""},
{"id":"246","name":"LAS VEGAS VALLEY WATER DISTRCT","lat":"36.159146","lng":"-115.192472","address":"1001 S VALLEY VIEW BLVD       ","address2":"","city":"Las Vegas           ","state":"NV","postal":"89153","phone":"                    ","web":"","hours1":"","hours2":"","hours3":""},
{"id":"247","name":"Lateada Tea Room & Gift Shop  ","lat":"40.142429","lng":"-88.957959","address":"1100 S Madison St             ","address2":"","city":"Clinton             ","state":"IL","postal":"61727","phone":"217-935-8855        ","web":"","hours1":"","hours2":"","hours3":""},
{"id":"248","name":"LECH'S PHARMACY               ","lat":"41.54543","lng":"-75.915167","address":"13 ROCKLEDGE LANE             ","address2":"","city":"Tunkhannock         ","state":"PA","postal":"18657","phone":"570-928-8010        ","web":"","hours1":"","hours2":"","hours3":""},
{"id":"249","name":"LEE TRACY                     ","lat":"30.413444","lng":"-88.827781","address":"1000 GOVERNMENT STREET        ","address2":"","city":"Ocean Springs       ","state":"MS","postal":"39564","phone":"228-447-4249        ","web":"","hours1":"","hours2":"","hours3":""},
{"id":"250","name":"Leigh Edelman Designs         ","lat":"40.235281","lng":"-74.903228","address":"120 Thornhill Lane            ","address2":"","city":"Newtown             ","state":"PA","postal":"18940","phone":"215-901-5786        ","web":"","hours1":"","hours2":"","hours3":""},
{"id":"251","name":"LESLIE'S HALLMARK             ","lat":"34.277985","lng":"-119.213849","address":"6000 TELEGRAPH ROAD           ","address2":"","city":"Ventura             ","state":"CA","postal":"93003","phone":"805-644-2331        ","web":"","hours1":"","hours2":"","hours3":""},
{"id":"252","name":"Linda's Gift                  ","lat":"33.159412","lng":"-117.350506","address":"300 Carlsbad Village #116     ","address2":"","city":"Carlsbad            ","state":"CA","postal":"92008","phone":"760-720-7525        ","web":"","hours1":"","hours2":"","hours3":""},
{"id":"253","name":"Lisas Hallmark                ","lat":"36.506899","lng":"-80.623078","address":"75 Mayberry Mall              ","address2":"","city":"Mount Airy          ","state":"NC","postal":"27030","phone":"336-786-8901        ","web":"","hours1":"","hours2":"","hours3":""},
{"id":"254","name":"Little Palm Island Associates ","lat":"24.666003","lng":"-81.496227","address":"28500 Overseas Highway        ","address2":"","city":"Summerland Key      ","state":"FL","postal":"33042","phone":"612-702-5368        ","web":"","hours1":"","hours2":"","hours3":""},
{"id":"255","name":"LOAR AUX GS/GARRETT MEMO      ","lat":"39.413051","lng":"-79.400954","address":"251 N. 4TH STREET             ","address2":"","city":"Oakland             ","state":"MD","postal":"21550","phone":"301-533-4055        ","web":"","hours1":"","hours2":"","hours3":""},
{"id":"256","name":"Loews Don Cesar Hotel         ","lat":"27.709448","lng":"-82.737458","address":"3400 Gulf Blvd                ","address2":"","city":"Saint Petersburg    ","state":"FL","postal":"33706","phone":"727-363-5084","web":"","hours1":"","hours2":"","hours3":""},
{"id":"257","name":"LOLLY'S HALLMARK              ","lat":"40.404655","lng":"-104.736383","address":"2030 35TH AVENUE, UNIT E      ","address2":"","city":"Greeley             ","state":"CO","postal":"80634","phone":"970-356-3929","web":"","hours1":"","hours2":"","hours3":""},
{"id":"258","name":"LONGFELLOWS GREENHOUSES       ","lat":"44.330152","lng":"-69.856972","address":"81 PUDDLEDOCK RD              ","address2":"","city":"Manchester          ","state":"ME","postal":"4351","phone":"207-622-5695        ","web":"","hours1":"","hours2":"","hours3":""},
{"id":"259","name":"LOO WIT GARDENS               ","lat":"46.599763","lng":"-120.561935","address":"4001 SUMMITVIEW #14           ","address2":"","city":"Yakima              ","state":"WA","postal":"98908","phone":"509-966-7010","web":"","hours1":"","hours2":"","hours3":""},
{"id":"260","name":"Lorraine's Hallmark           ","lat":"43.532352","lng":"-90.01811","address":"297 Main Street               ","address2":"","city":"Reedsburg           ","state":"WI","postal":"53959","phone":"608-524-2049        ","web":"","hours1":"","hours2":"","hours3":""},
{"id":"261","name":"LOS ROBLES HOSPITAL VOLUNTEERS","lat":"34.206614","lng":"-118.882289","address":"215 W JANSS RD                ","address2":"","city":"Thousand Oaks       ","state":"CA","postal":"91360","phone":"805-370-4598","web":"","hours1":"","hours2":"","hours3":""},
{"id":"262","name":"Love Oak                      ","lat":"32.401933","lng":"-98.825551","address":"805 W Main                    ","address2":"","city":"Eastland            ","state":"TX","postal":"76448","phone":"254-629-1791        ","web":"","hours1":"","hours2":"","hours3":""},
{"id":"263","name":"Lowes Greenhouse florist & GS ","lat":"41.421436","lng":"-81.338345","address":"16540 Chilicothe Road         ","address2":"","city":"Chagrin Falls       ","state":"OH","postal":"44023","phone":"440-543-5123        ","web":"","hours1":"","hours2":"","hours3":""},
{"id":"264","name":"LPG Service & Gifts           ","lat":"44.789586","lng":"-89.720466","address":"1130 Mosinee Ave          ","address2":"","city":"Mosinee             ","state":"WI","postal":"54455","phone":"715-693-4057        ","web":"","hours1":"","hours2":"","hours3":""},
{"id":"265","name":"Luckey Charms Gifts & Embrodie","lat":"33.463455","lng":"-82.492131","address":"454 E Hill St                 ","address2":"","city":"Thomson             ","state":"GA","postal":"30824","phone":"706-595-8571        ","web":"","hours1":"","hours2":"","hours3":""},
{"id":"266","name":"Lucy Lus Botique              ","lat":"31.461219","lng":"-82.867955","address":"4600 Willachoochee Hwy        ","address2":"","city":"Douglas             ","state":"GA","postal":"31535","phone":"912-384-5829        ","web":"","hours1":"","hours2":"","hours3":""},
{"id":"267","name":"Lydias                        ","lat":"38.302789","lng":"-77.462377","address":"415 William Street            ","address2":"","city":"Fredericksburg      ","state":"VA","postal":"22401","phone":"540-373-7023        ","web":"","hours1":"","hours2":"","hours3":""},
{"id":"268","name":"MAIN STREET CO (HIGH ST, LLC) ","lat":"38.057465","lng":"-97.126419","address":"611 MAIN ST                   ","address2":"","city":"Newton              ","state":"KS","postal":"67114","phone":"316-283-5745        ","web":"","hours1":"","hours2":"","hours3":""},
{"id":"269","name":"Marshland Pharmacy            ","lat":"43.444317","lng":"-88.648038","address":"620 Washington Street         ","address2":"","city":"Horicon             ","state":"WI","postal":"53032","phone":"920-485-3400        ","web":"","hours1":"","hours2":"","hours3":""},
{"id":"270","name":"Mary Yoders Amish Kitchen     ","lat":"41.468031","lng":"-81.074727","address":"14743 Old State Rd                   ","address2":"","city":"Middlefield         ","state":"OH","postal":"44062","phone":"440-632-1939        ","web":"","hours1":"","hours2":"","hours3":""},
{"id":"271","name":"Masons Hallmark               ","lat":"32.733859","lng":"-97.793727","address":"1956 South Main Street        ","address2":"","city":"Weatherford         ","state":"TX","postal":"76086","phone":"817-594-0688        ","web":"","hours1":"","hours2":"","hours3":""},
{"id":"272","name":"Matterns Flower Shop          ","lat":"41.257855","lng":"-75.893404","address":"447 Market Street             ","address2":"","city":"Kingston            ","state":"PA","postal":"18704","phone":"570-331-3333        ","web":"","hours1":"","hours2":"","hours3":""},
{"id":"273","name":"MAYO CLINIC HEALTH SYSTEM/EAU ","lat":"44.812037","lng":"-91.513304","address":"1221 WHIPPLE ST               ","address2":"","city":"Eau Claire          ","state":"WI","postal":"54703","phone":"715-838-5530","web":"","hours1":"","hours2":"","hours3":""},
{"id":"274","name":"McLaren Macomb                ","lat":"42.586794","lng":"-82.895937","address":"1000 Harrington Blvd          ","address2":"","city":"Mount Clemens       ","state":"MI","postal":"48043","phone":"586-493-3244        ","web":"","hours1":"","hours2":"","hours3":""},
{"id":"275","name":"Me and Co                     ","lat":"35.930272","lng":"-84.029816","address":"7240 Kingston Pike #116       ","address2":"","city":"Knoxville           ","state":"TN","postal":"37919","phone":"865-705-4620        ","web":"","hours1":"","hours2":"","hours3":""},
{"id":"276","name":"Medical College of Va Hospital","lat":"37.540478","lng":"-77.429191","address":"1213 East Clay Street         ","address2":"","city":"Richmond            ","state":"VA","postal":"23298","phone":"804-828-5999        ","web":"","hours1":"","hours2":"","hours3":""},
{"id":"277","name":"Medisav Pharmacies            ","lat":"35.345566","lng":"-94.334916","address":"8820 Rogers Ave               ","address2":"","city":"Fort Smith          ","state":"AR","postal":"72903","phone":"479-452-0278        ","web":"","hours1":"","hours2":"","hours3":""},
{"id":"278","name":"Mended Wing                   ","lat":"38.879144","lng":"-94.749958","address":"14211 W 138th Terr            ","address2":"","city":"Olathe              ","state":"KS","postal":"66062","phone":"913-219-0372        ","web":"","hours1":"","hours2":"","hours3":""},
{"id":"279","name":"Mercy Auxiliary               ","lat":"35.609023","lng":"-97.600915","address":"4300 West Memorial Rd         ","address2":"","city":"Oklahoma City       ","state":"OK","postal":"73120","phone":"405-752-3683        ","web":"","hours1":"","hours2":"","hours3":""},
{"id":"280","name":"Mercy Gift Shop               ","lat":"40.81127","lng":"-81.397108","address":"1320 Mercy Dr NW              ","address2":"","city":"Canton              ","state":"OH","postal":"44708","phone":"330-489-1356        ","web":"","hours1":"","hours2":"","hours3":""},
{"id":"281","name":"MERCY HEALTH SYSTEM           ","lat":"42.694022","lng":"-89.036991","address":"1010 N WASHINGTON STREET      ","address2":"SUITE 100"                     ,"city":"Janesville          ","state":"WI","postal":"53548","phone":"608-756-6000        ","web":"","hours1":"","hours2":"","hours3":""},
{"id":"282","name":"MERCY MEDICAL CENTER          ","lat":"37.345785","lng":"-120.42415","address":"333 MERCY AVE                 ","address2":"","city":"Merced              ","state":"CA","postal":"95340","phone":"209-769-7913","web":"","hours1":"","hours2":"","hours3":""},
{"id":"283","name":"Merlins Greenhouse & Flowers  ","lat":"42.017352","lng":"-89.340147","address":"300 Mix Street                ","address2":"","city":"Oregon              ","state":"IL","postal":"61061","phone":"815-732-2969        ","web":"","hours1":"","hours2":"","hours3":""},
{"id":"284","name":"MERMAID'S SECRET GARDEN       ","lat":"28.012148","lng":"-82.789386","address":"318 MAIN STREET               ","address2":"","city":"Dunedin             ","state":"FL","postal":"34698","phone":"727-736-5825        ","web":"","hours1":"","hours2":"","hours3":""},
{"id":"285","name":"MID MICHIGAN MEDICAL CENTER   ","lat":"43.604553","lng":"-84.153098","address":"4000 WELLNESS DRIVE","address2":"MIDLAND GIFT SHOP"           ,"city":"Midland             ","state":"MI","postal":"48670","phone":"989-839-3966        ","web":"","hours1":"","hours2":"","hours3":""},
{"id":"286","name":"Mika Inc - Barbados             ","lat":"25.840653","lng":"-80.32644","address":"7900 NW 68th St               ","address2":"","city":"Miami               ","state":"FL","postal":"33166","phone":"246-421-7968        ","web":"","hours1":"","hours2":"","hours3":""},
{"id":"287","name":"MILL POND MERCANTILE          ","lat":"45.302549","lng":"-94.943736","address":"24 MAIN STREET NORTH          ","address2":"","city":"New London          ","state":"MN","postal":"56273","phone":"320-354-5557        ","web":"","hours1":"","hours2":"","hours3":""},
{"id":"288","name":"Miss Monroe LLC               ","lat":"24.919198","lng":"-80.634231","address":"81868 Overseas Highway        ","address2":"","city":"Islamorada          ","state":"FL","postal":"33036","phone":"612-702-5368        ","web":"","hours1":"","hours2":"","hours3":""},
{"id":"289","name":"Monera Jewelry                ","lat":"39.075803","lng":"-84.461031","address":"654 Highland Ave              ","address2":"Suite 29"                      ,"city":"Fort Thomas         ","state":"KY","postal":"41075","phone":"859-380-8499        ","web":"","hours1":"","hours2":"","hours3":""},
{"id":"290","name":"Monograms Plus                ","lat":"33.530284","lng":"-88.436907","address":"1807 Hwy 45 North             ","address2":"Kroger Plaza"                  ,"city":"Columbus            ","state":"MS","postal":"39705","phone":"662-327-3332        ","web":"","hours1":"","hours2":"","hours3":""},
{"id":"291","name":"Morgan House                  ","lat":"40.154127","lng":"-83.122839","address":"5300 Glick Rd                 ","address2":"","city":"Dublin              ","state":"OH","postal":"43017","phone":"614-889-0037        ","web":"","hours1":"","hours2":"","hours3":""},
{"id":"292","name":"MORRISON COUNTRY STORE        ","lat":"39.653235","lng":"-105.190019","address":"201 Bear Creek Ave                 ","address2":"","city":"Morrison            ","state":"CO","postal":"80465","phone":"303-697-8916","web":"","hours1":"","hours2":"","hours3":""},
{"id":"293","name":"MOUNTAIN LAUREL GIFTS         ","lat":"39.328114","lng":"-82.101275","address":"25 SOUTH COURT STREET         ","address2":"","city":"Athens              ","state":"OH","postal":"45701","phone":"740-592-5478        ","web":"","hours1":"","hours2":"","hours3":""},
{"id":"294","name":"MY BEST FRIENDS CLOSET        ","lat":"37.71682","lng":"-121.399399","address":"1693 SAINT EMILLION CT        ","address2":"","city":"Tracy               ","state":"CA","postal":"95304","phone":"209-833-6232        ","web":"","hours1":"","hours2":"","hours3":""},
{"id":"295","name":"MY FAVORITE THINGS            ","lat":"30.411567","lng":"-86.993074","address":"585 BAY SLIFFS CIRCLE         ","address2":"","city":"Gulf Breeze         ","state":"FL","postal":"32561","phone":"850-346-1707","web":"","hours1":"","hours2":"","hours3":""},
{"id":"296","name":"My Favorite Things            ","lat":"28.012176","lng":"-82.789119","address":"330 Main Street               ","address2":"","city":"Dunedin             ","state":"FL","postal":"34698","phone":"727-738-1277        ","web":"","hours1":"","hours2":"","hours3":""},
{"id":"297","name":"MY FAVORITE THINGS            ","lat":"38.028544","lng":"-84.428135","address":"2721 OLD ROSEBUD RD           ","address2":"","city":"Lexington           ","state":"KY","postal":"40509","phone":"859-264-0837        ","web":"","hours1":"","hours2":"","hours3":""},
{"id":"298","name":"My secret Garden              ","lat":"43.595971","lng":"-83.889226","address":"600 Saginaw Street            ","address2":"","city":"Bay City            ","state":"MI","postal":"48708","phone":"989-891-2000        ","web":"","hours1":"","hours2":"","hours3":""},
{"id":"299","name":"My Sisters Cottage            ","lat":"42.363257","lng":"-87.929139","address":"5101 Washington St Unit 12    ","address2":"","city":"Gurnee              ","state":"IL","postal":"60031","phone":"224-789-7383        ","web":"","hours1":"","hours2":"","hours3":""},
{"id":"300","name":"New River Pottery             ","lat":"34.249337","lng":"-77.859657","address":"5744 Market Street            ","address2":"","city":"Wilmington          ","state":"NC","postal":"28405","phone":"910-791-7522        ","web":"","hours1":"","hours2":"","hours3":""},
{"id":"301","name":"Nicholson Hardie Nursery & Garden Center","lat":"32.851052","lng":"-96.82503","address":"5060 W. Lovers Lane             ","address2":"","city":"Dallas              ","state":"TX","postal":"75209","phone":"214-357-4348        ","web":"","hours1":"","hours2":"","hours3":""},
{"id":"302","name":"NIKKI'S HALLMARK              ","lat":"40.904643","lng":"-74.062969","address":"60 WEST PLEASANT AVENUE       ","address2":"","city":"Maywood             ","state":"NJ","postal":"7607","phone":"201-843-5655        ","web":"","hours1":"","hours2":"","hours3":""},
{"id":"303","name":"Nora Chapa                    ","lat":"29.40597","lng":"-100.923712","address":"115 Medicine Bow Tr           ","address2":"","city":"Del Rio             ","state":"TX","postal":"78840","phone":"830-734-3986        ","web":"","hours1":"","hours2":"","hours3":""},
{"id":"304","name":"Normans Hallmark              ","lat":"32.682847","lng":"-97.414337","address":"4620 Bryant Irvin Rd Ste 540  ","address2":"","city":"Fort Worth          ","state":"TX","postal":"76132","phone":"817-294-8808        ","web":"","hours1":"","hours2":"","hours3":""},
{"id":"305","name":"NORTH WARREN PHARMACY         ","lat":"40.942238","lng":"-74.937487","address":"155 ROUTE 94                  ","address2":"","city":"Blairstown          ","state":"NJ","postal":"7825","phone":"908-362-5156        ","web":"","hours1":"","hours2":"","hours3":""},
{"id":"306","name":"OAK TREE, THE                 ","lat":"40.584968","lng":"-102.302104","address":"141 S INTEROCEAN AVE          ","address2":"","city":"Holyoke             ","state":"CO","postal":"80734","phone":"970-854-4080        ","web":"","hours1":"","hours2":"","hours3":""},
{"id":"307","name":"OAKLAND NURSERY               ","lat":"40.032362","lng":"-82.982805","address":"1156 OAKLAND PARK AVE         ","address2":"","city":"Columbus            ","state":"OH","postal":"43224","phone":"614-268-3511        ","web":"","hours1":"","hours2":"","hours3":""},
{"id":"308","name":"Occasions                     ","lat":"41.708068","lng":"-88.176608","address":"3027 English Rows Dr          ","address2":"Suite 111"                     ,"city":"Naperville          ","state":"IL","postal":"60564","phone":"630-355-5045        ","web":"","hours1":"","hours2":"","hours3":""},
{"id":"309","name":"OLD MISSION GIFT SHOP         ","lat":"34.595807","lng":"-120.13615","address":"1760 MISSION DRIVE            ","address2":"","city":"Solvang             ","state":"CA","postal":"93463","phone":"805-688-4815","web":"","hours1":"","hours2":"","hours3":""},
{"id":"310","name":"Oliver Ts Market              ","lat":"42.944229","lng":"-83.674497","address":"1553 E Hill Rd                ","address2":"","city":"Grand Blanc         ","state":"MI","postal":"48439","phone":"810-695-6550        ","web":"","hours1":"","hours2":"","hours3":""},
{"id":"311","name":"Oxford Feed & Lumber          ","lat":"39.785355","lng":"-75.976319","address":"112 Railroad Avenue           ","address2":"","city":"Oxford              ","state":"PA","postal":"19363","phone":"610-932-8521        ","web":"","hours1":"","hours2":"","hours3":""},
{"id":"312","name":"Palmetto Moon                 ","lat":"32.791622","lng":"-80.032051","address":"2070 Sam Rittenberg Blvd      ","address2":"","city":"Charleston          ","state":"SC","postal":"29407","phone":"843-763-7444        ","web":"","hours1":"","hours2":"","hours3":""},
{"id":"313","name":"PAOLI PHARMACY                ","lat":"40.042307","lng":"-75.467164","address":"1564 EAST LANCASTER AVENUE    ","address2":"","city":"Paoli               ","state":"PA","postal":"19301","phone":"610-644-3880        ","web":"","hours1":"","hours2":"","hours3":""},
{"id":"314","name":"PAPER AFFAIR #1005            ","lat":"33.04381","lng":"-96.852229","address":"5809 PRESTON ROAD             ","address2":"SUITE 576"                     ,"city":"Plano               ","state":"TX","postal":"75093","phone":"972-398-8888        ","web":"","hours1":"","hours2":"","hours3":""},
{"id":"315","name":"Paper and More                ","lat":"37.253739","lng":"-81.224004","address":"634 College Ave               ","address2":"","city":"Bluefield           ","state":"WV","postal":"24701","phone":"276-322-3055        ","web":"","hours1":"","hours2":"","hours3":""},
{"id":"316","name":"Paper Lantern                 ","lat":"26.273908","lng":"-81.64526","address":"2700 Immokalee Road           ","address2":"Suite 7"                       ,"city":"Naples              ","state":"FL","postal":"34110","phone":"239-593-4004        ","web":"","hours1":"","hours2":"","hours3":""},
{"id":"317","name":"Parkridge Gift Shop           ","lat":"34.037556","lng":"-81.046418","address":"400 Palmetto Health Parkway   ","address2":"","city":"Columbia            ","state":"SC","postal":"29212","phone":"803-434-3001        ","web":"","hours1":"","hours2":"","hours3":""},
{"id":"318","name":"Party ON                      ","lat":"41.099743","lng":"-80.774401","address":"6000 Mahoning Ave. Suite 230             ","address2":"","city":"Austintown          ","state":"OH","postal":"44515","phone":"330-544-6915        ","web":"","hours1":"","hours2":"","hours3":""},
{"id":"319","name":"Peacaloo Boutique             ","lat":"38.301332","lng":"-77.458382","address":"720 Caroline Street           ","address2":"","city":"Fredericksburg      ","state":"VA","postal":"22401","phone":"540-940-2818        ","web":"","hours1":"","hours2":"","hours3":""},
{"id":"320","name":"Peace By Piece Co             ","lat":"38.513462","lng":"-89.985909","address":"132 W Main St                 ","address2":"","city":"Belleville          ","state":"IL","postal":"62220","phone":"618-233-1519        ","web":"","hours1":"","hours2":"","hours3":""},
{"id":"321","name":"PEACOCK LANE                  ","lat":"38.019052","lng":"-92.702286","address":"461 KADIE DRIVE               ","address2":"","city":"Linn Creek          ","state":"MO","postal":"65052","phone":"573-693-1236        ","web":"","hours1":"","hours2":"","hours3":""},
{"id":"322","name":"Pear Aphernalia               ","lat":"42.431059","lng":"-83.480895","address":"184 E Main Street             ","address2":"","city":"Northville          ","state":"MI","postal":"48167","phone":"248-596-1430        ","web":"","hours1":"","hours2":"","hours3":""},
{"id":"323","name":"Pecan Creek                   ","lat":"32.958677","lng":"-96.829667","address":"5060 Addison Circle           ","address2":"Apt 6837"                      ,"city":"Carrollton          ","state":"TX","postal":"75006","phone":"469-964-7711        ","web":"","hours1":"","hours2":"","hours3":""},
{"id":"324","name":"Peggys Card Shop Inc          ","lat":"35.79181","lng":"-78.714683","address":"148 Grand Hill Place          ","address2":"","city":"Holly Springs       ","state":"NC","postal":"27540","phone":"910-893-3667        ","web":"","hours1":"","hours2":"","hours3":""},
{"id":"325","name":"Perkins Drugs & Gift Shoppe   ","lat":"36.391296","lng":"-86.434571","address":"532 Hartsville Pike           ","address2":"","city":"Gallatin            ","state":"TN","postal":"37066","phone":"615-452-6111        ","web":"","hours1":"","hours2":"","hours3":""},
{"id":"326","name":"PERRY'S PARCEL & COURIER      ","lat":"35.486099","lng":"-120.664265","address":"7395 EL CAMINO REAL           ","address2":"","city":"Atascadero          ","state":"CA","postal":"93422","phone":"805-466-3200        ","web":"","hours1":"","hours2":"","hours3":""},
{"id":"327","name":"Petals and Twigs              ","lat":"41.531002","lng":"-87.981581","address":"427 W Francis Road            ","address2":"","city":"New Lenox           ","state":"IL","postal":"60451","phone":"815-485-5976        ","web":"","hours1":"","hours2":"","hours3":""},
{"id":"328","name":"PHILLIPS ACE HARDWARE         ","lat":"41.495967","lng":"-87.044485","address":"3100 CALUMET AVE              ","address2":"","city":"Valparaiso          ","state":"IN","postal":"46383","phone":"219-464-8687        ","web":"","hours1":"","hours2":"","hours3":""},
{"id":"329","name":"PHILLIPS LIGHTING & HOME      ","lat":"37.668956","lng":"-120.993991","address":"1700 MCHENRY AVE STE76A       ","address2":"","city":"Modesto             ","state":"CA","postal":"95350","phone":"209-524-6287","web":"","hours1":"","hours2":"","hours3":""},
{"id":"330","name":"Piazza                        ","lat":"33.018694","lng":"-80.177836","address":"127 Central Avenue            ","address2":"","city":"Summerville         ","state":"SC","postal":"29483","phone":"843-873-8015        ","web":"","hours1":"","hours2":"","hours3":""},
{"id":"331","name":"PICKWICK HALLMARK             ","lat":"40.277456","lng":"-74.533591","address":"319 US HIGHWAY 130  STE 10    ","address2":"TOWN CENTER PLAZA"             ,"city":"Hightstown          ","state":"NJ","postal":"8520","phone":"609-443-1221        ","web":"","hours1":"","hours2":"","hours3":""},
{"id":"332","name":"Pink Martini Gift Shop        ","lat":"43.028429","lng":"-78.968626","address":"2445 Grand Island Blvd        ","address2":"","city":"Grand Island        ","state":"NY","postal":"14072","phone":"716-773-4045        ","web":"","hours1":"","hours2":"","hours3":""},
{"id":"333","name":"Pink Pinafore Gift Shop       ","lat":"35.434486","lng":"-80.602992","address":"920 N Church Street           ","address2":"","city":"Concord             ","state":"NC","postal":"28025","phone":"704-403-1574        ","web":"","hours1":"","hours2":"","hours3":""},
{"id":"334","name":"PINK PLACEBO                  ","lat":"36.024161","lng":"-84.243243","address":"990 OAKRIDGE TURNPIKE         ","address2":"","city":"Oak Ridge           ","state":"TN","postal":"37830","phone":"                    ","web":"","hours1":"","hours2":"","hours3":""},
{"id":"335","name":"Pink Poppy Shed               ","lat":"32.305289","lng":"-90.016327","address":"83 Hill Street                ","address2":"","city":"Brandon             ","state":"MS","postal":"39042","phone":"601-941-7055        ","web":"","hours1":"","hours2":"","hours3":""},
{"id":"336","name":"PINK SILHOUETTTE              ","lat":"39.652234","lng":"-78.770182","address":"20 EAST LEE STREET            ","address2":"","city":"Bel Air             ","state":"MD","postal":"21014","phone":"410-420-6372        ","web":"","hours1":"","hours2":"","hours3":""},
{"id":"337","name":"PIONEER MEMORIAL              ","lat":"32.959788","lng":"-115.554189","address":"207 W LEGION RD               ","address2":"","city":"Brawley             ","state":"CA","postal":"92227","phone":"                    ","web":"","hours1":"","hours2":"","hours3":""},
{"id":"338","name":"PJC MERCH - VILLA ROMA RESORT ","lat":"41.760498","lng":"-74.96757","address":"356 VILLA ROMA RD             ","address2":"","city":"Callicoon           ","state":"NY","postal":"12723","phone":"845-887-4880        ","web":"","hours1":"","hours2":"","hours3":""},
{"id":"339","name":"Plumyumi Dry Spa              ","lat":"33.396859","lng":"-84.608932","address":"2860 Hwy 54                   ","address2":"Ste 200"                       ,"city":"Peachtree City      ","state":"GA","postal":"30269","phone":"770-632-1212        ","web":"","hours1":"","hours2":"","hours3":""},
{"id":"340","name":"POPPY                         ","lat":"35.367921","lng":"-120.853819","address":"911 EMBARCADERO               ","address2":"","city":"Morro Bay           ","state":"CA","postal":"93442","phone":"805-771-9750","web":"","hours1":"","hours2":"","hours3":""},
{"id":"341","name":"PORT WASHINGTON TRADING CO    ","lat":"43.403517","lng":"-87.859012","address":"1127 NORIDGE TRAIL            ","address2":"","city":"Port Washington     ","state":"WI","postal":"53074","phone":"262-284-1700        ","web":"","hours1":"","hours2":"","hours3":""},
{"id":"342","name":"Portables Gift Shop           ","lat":"41.448515","lng":"-81.923581","address":"27333 Center Ridge Rd         ","address2":"","city":"Westlake            ","state":"OH","postal":"44145","phone":"440-871-2600        ","web":"","hours1":"","hours2":"","hours3":""},
{"id":"343","name":"Posh                          ","lat":"35.669824","lng":"-88.852789","address":"100 C Vann Drive              ","address2":"","city":"Jackson             ","state":"TN","postal":"38305","phone":"731-300-0301        ","web":"","hours1":"","hours2":"","hours3":""},
{"id":"344","name":"Powell Gardens                ","lat":"38.862845","lng":"-94.049081","address":"1609 NW HWY 50                ","address2":"","city":"Kingsville          ","state":"MO","postal":"64061","phone":"816-697-2600        ","web":"","hours1":"","hours2":"","hours3":""},
{"id":"345","name":"Prairie Patches               ","lat":"38.96901","lng":"-95.236062","address":"821 Massachusetts St          ","address2":"","city":"Lawrence            ","state":"KS","postal":"66044","phone":"785-749-4565        ","web":"","hours1":"","hours2":"","hours3":""},
{"id":"346","name":"Presbyterian Apothecary       ","lat":"32.883106","lng":"-96.76217","address":"8200 Walnut Hill Lane         ","address2":"","city":"Dallas              ","state":"TX","postal":"75231","phone":"214-345-2595        ","web":"","hours1":"","hours2":"","hours3":""},
{"id":"347","name":"Presents Gifts                ","lat":"44.880713","lng":"-93.332657","address":"2930 Southdale Center         ","address2":"","city":"Edina               ","state":"MN","postal":"55435","phone":"952-929-1669        ","web":"","hours1":"","hours2":"","hours3":""},
{"id":"348","name":"PROFESSIONAL PHARMACY         ","lat":"40.259657","lng":"-75.633572","address":"920 NORTH CHARLOTTE ST        ","address2":"","city":"Pottstown           ","state":"PA","postal":"19464","phone":"610-323-2115        ","web":"","hours1":"","hours2":"","hours3":""},
{"id":"349","name":"PROVIDENCE MED CTR GIFT SHOP  ","lat":"39.128437","lng":"-94.786113","address":"8929 PARALLEL PKWY            ","address2":"","city":"Kansas City         ","state":"KS","postal":"66112","phone":"913-596-4870        ","web":"","hours1":"","hours2":"","hours3":""},
{"id":"350","name":"Publishers Clearing House     ","lat":"40.843283","lng":"-73.700746","address":"382 Channel Drive             ","address2":"","city":"Port Washington     ","state":"NY","postal":"11050","phone":"                    ","web":"","hours1":"","hours2":"","hours3":""},
{"id":"351","name":"Pure By Jen                   ","lat":"38.511799","lng":"-90.43413","address":"16739 Main St                 ","address2":"","city":"Grover              ","state":"MO","postal":"63040","phone":"636-458-8588        ","web":"","hours1":"","hours2":"","hours3":""},
{"id":"352","name":"Purple Poppy                  ","lat":"40.014957","lng":"-105.10373","address":"2850 Arapahoe Rd              ","address2":"Suite 108"                     ,"city":"Lafayette           ","state":"CO","postal":"80026","phone":"303-530-3115        ","web":"","hours1":"","hours2":"","hours3":""},
{"id":"353","name":"Radebaugh Florist & Greenhouse","lat":"39.394973","lng":"-76.597428","address":"120 Burke Avenue              ","address2":"","city":"Towson              ","state":"MD","postal":"21286","phone":"410-825-4300        ","web":"","hours1":"","hours2":"","hours3":""},
{"id":"354","name":"RANSOM MEMORIAL HOSPITAL      ","lat":"38.597253","lng":"-95.268926","address":"1301 S MAIN                   ","address2":"","city":"Ottawa              ","state":"KS","postal":"66067","phone":"785-229-8297        ","web":"","hours1":"","hours2":"","hours3":""},
{"id":"355","name":"RAZZLE TOYS                   ","lat":"39.609333","lng":"-104.959859","address":"5910 S UNIVERSITY BLVD UNIT D ","address2":"","city":"Littleton           ","state":"CO","postal":"80121","phone":"303-730-1505","web":"","hours1":"","hours2":"","hours3":""},
{"id":"356","name":"REFLECTIONS GIFT SHOP         ","lat":"38.905413","lng":"-75.431917","address":"21 West Clarke Avenue                ","address2":"","city":"Milford             ","state":"DE","postal":"19963","phone":"302-430-5622        ","web":"","hours1":"","hours2":"","hours3":""},
{"id":"357","name":"Regency of Howland            ","lat":"41.238214","lng":"-80.743913","address":"8264 East Market Street       ","address2":"","city":"Warren              ","state":"OH","postal":"44483","phone":"330-856-5043        ","web":"","hours1":"","hours2":"","hours3":""},
{"id":"358","name":"RHOADS GARDEN INC.            ","lat":"40.220153","lng":"-75.24809","address":"570 DEKALB PIKE               ","address2":"","city":"North Wales         ","state":"PA","postal":"19454","phone":"215-699-2207        ","web":"","hours1":"","hours2":"","hours3":""},
{"id":"359","name":"Rhoads Pharmacy & Gifts       ","lat":"40.265127","lng":"-76.7085","address":"17 West Main Street           ","address2":"","city":"Hummelstown         ","state":"PA","postal":"17036","phone":"717-566-2525        ","web":"","hours1":"","hours2":"","hours3":""},
{"id":"360","name":"Rhubarbs                      ","lat":"33.218069","lng":"-87.57831","address":"422 Main Avenue               ","address2":"","city":"Northport           ","state":"AL","postal":"35476","phone":"205-343-1933        ","web":"","hours1":"","hours2":"","hours3":""},
{"id":"361","name":"Riegseckers Inc               ","lat":"41.676184","lng":"-85.580068","address":"105 E Middlebury Street              ","address2":"","city":"Shipshewana         ","state":"IN","postal":"46565","phone":"260-768-4725        ","web":"","hours1":"","hours2":"","hours3":""},
{"id":"362","name":"Riverside Medical Center      ","lat":"41.124486","lng":"-87.88288","address":"350 N Wall St                 ","address2":"","city":"Kankakee            ","state":"IL","postal":"60901","phone":"815-935-7871        ","web":"","hours1":"","hours2":"","hours3":""},
{"id":"363","name":"Riverwalk Threads             ","lat":"43.980628","lng":"-84.495182","address":"777 W Cedar Ave               ","address2":"","city":"Gladwin             ","state":"MI","postal":"48624","phone":"989-426-6730        ","web":"","hours1":"","hours2":"","hours3":""},
{"id":"364","name":"ROBIN'S NEST GIFTS            ","lat":"44.523256","lng":"-89.58316","address":"1129 MAIN ST                  ","address2":"","city":"Stevens Point       ","state":"WI","postal":"54481","phone":"715-254-0974        ","web":"","hours1":"","hours2":"","hours3":""},
{"id":"365","name":"ROBINS EURORPEAN COTTAGE      ","lat":"43.301181","lng":"-87.989066","address":"N70 W6340 BRIDGE ROAD         ","address2":"","city":"Cedarburg           ","state":"WI","postal":"53012","phone":"262-377-3444        ","web":"","hours1":"","hours2":"","hours3":""},
{"id":"366","name":"Royal Gifts & Fine China      ","lat":"35.011872","lng":"-78.31918","address":"117 Wall Street               ","address2":"","city":"Clinton             ","state":"NC","postal":"28328","phone":"910-590-2795        ","web":"","hours1":"","hours2":"","hours3":""},
{"id":"367","name":"ROYER PHARMACY                ","lat":"40.178159","lng":"-76.176866","address":"2 EAST MAIN ST                ","address2":"","city":"Ephrata             ","state":"PA","postal":"17522","phone":"717-733-6541        ","web":"","hours1":"","hours2":"","hours3":""},
{"id":"368","name":"Ruby Lorelle Salon & Serendip ","lat":"32.271695","lng":"-88.656427","address":"5694 Zero Road                ","address2":"","city":"Meridian            ","state":"MS","postal":"39301","phone":"                    ","web":"","hours1":"","hours2":"","hours3":""},
{"id":"369","name":"RUGGLE'S HALLMARK             ","lat":"34.416059","lng":"-118.557663","address":"24201 VALENCIA BLVD           ","address2":"VALENCIA TOWN CENTER #1257"    ,"city":"Valencia            ","state":"CA","postal":"91355","phone":"818-246-0915        ","web":"","hours1":"","hours2":"","hours3":""},
{"id":"370","name":"Ruth's Hallmark               ","lat":"39.908633","lng":"-74.968931","address":"1 Keystone Avenue             ","address2":"Suite 400"                     ,"city":"Cherry Hill         ","state":"NJ","postal":"8003","phone":"856-751-0079        ","web":"","hours1":"","hours2":"","hours3":""},
{"id":"371","name":"Sage & Pine                   ","lat":"32.608348","lng":"-84.894153","address":"114 Grey Fox Court            ","address2":"","city":"Cataula             ","state":"GA","postal":"31804","phone":"706-442-8928        ","web":"","hours1":"","hours2":"","hours3":""},
{"id":"372","name":"SAINT JOSEPH REGIONAL MED CTR ","lat":"41.702608","lng":"-86.252393","address":"5215 HOLY CROSS PKWY          ","address2":"","city":"Mishawaka           ","state":"IN","postal":"46545","phone":"574-335-2409        ","web":"","hours1":"","hours2":"","hours3":""},
{"id":"373","name":"Salon Bark                    ","lat":"26.188511","lng":"-80.104988","address":"6274 N Federal Highway        ","address2":"","city":"Fort Lauderdale     ","state":"FL","postal":"33308","phone":"954-491-1119        ","web":"","hours1":"","hours2":"","hours3":""},
{"id":"374","name":"Sapphire on Spring            ","lat":"38.312758","lng":"-85.886879","address":"4001 Woodstone Drive          ","address2":"","city":"Floyds Knobs        ","state":"IN","postal":"47119","phone":"812-736-6836        ","web":"","hours1":"","hours2":"","hours3":""},
{"id":"375","name":"SARAH'S HALLMARK              ","lat":"33.43656","lng":"-111.719155","address":"1112 N HIGLEY RD #103         ","address2":"","city":"Mesa                ","state":"AZ","postal":"85205","phone":"480-981-8828        ","web":"","hours1":"","hours2":"","hours3":""},
{"id":"376","name":"Sarahs Hallmark               ","lat":"41.671209","lng":"-93.69752","address":"6105 Merle Hay Road           ","address2":"","city":"Johnston            ","state":"IA","postal":"50131","phone":"515-278-4537        ","web":"","hours1":"","hours2":"","hours3":""},
{"id":"377","name":"SCARBOROUGH GARDENS           ","lat":"37.055569","lng":"-122.010127","address":"33 El Pueblo Rd              ","address2":"","city":"Scotts Valley       ","state":"CA","postal":"95066","phone":"831-438-4106        ","web":"","hours1":"","hours2":"","hours3":""},
{"id":"378","name":"Scottish Rite Hospital        ","lat":"32.801992","lng":"-96.8146","address":"2222 Welborn Street                 ","address2":"","city":"Dallas              ","state":"TX","postal":"75219","phone":"214-559-5000        ","web":"","hours1":"","hours2":"","hours3":""},
{"id":"379","name":"SCRIPPS GREEN HOSPITAL GIFT   ","lat":"32.847955","lng":"-117.263092","address":"10666 N TORREY PINE RD        ","address2":"","city":"La Jolla            ","state":"CA","postal":"92037","phone":"858-554-2530","web":"","hours1":"","hours2":"","hours3":""},
{"id":"380","name":"SCRIPPS MEMORIAL HOSPITAL     ","lat":"32.645948","lng":"-117.09535","address":"435 H ST     ","address2":"CHULA VISTA GIFT SHOP"      ,"city":"Chula Vista         ","state":"CA","postal":"91910","phone":"619-691-7537","web":"","hours1":"","hours2":"","hours3":""},
{"id":"381","name":"SCRIPPS MERCY HOSPITAL        ","lat":"32.751388","lng":"-117.161096","address":"4077 5TH AVENUE               ","address2":"GIFT SHOP"                    ,"city":"San Diego           ","state":"CA","postal":"92103","phone":"619-686-3535        ","web":"","hours1":"","hours2":"","hours3":""},
{"id":"382","name":"SEASONS BY DESIGN             ","lat":"44.030672","lng":"-88.177267","address":"242 KIESNER DR                ","address2":"","city":"Chilton             ","state":"WI","postal":"53014","phone":"920-251-3429","web":"","hours1":"","hours2":"","hours3":""},
{"id":"383","name":"Serendipity Card & Gift       ","lat":"38.389091","lng":"-88.367146","address":"113 SE Second                 ","address2":"","city":"Fairfield           ","state":"IL","postal":"62837","phone":"618-842-3821        ","web":"","hours1":"","hours2":"","hours3":""},
{"id":"384","name":"SEROOGYS CHOCOLATES           ","lat":"44.44943","lng":"-88.059074","address":"144 N WISCONSIN ST            ","address2":"","city":"De Pere             ","state":"WI","postal":"54115","phone":"920-336-1383        ","web":"","hours1":"","hours2":"","hours3":""},
{"id":"385","name":"Shabby Chic Boutique          ","lat":"42.962716","lng":"-78.746578","address":"5544 Main Street              ","address2":"","city":"Buffalo             ","state":"NY","postal":"14221","phone":"716-597-7675        ","web":"","hours1":"","hours2":"","hours3":""},
{"id":"386","name":"SHARP CHULA VISTA MED CTR     ","lat":"32.618931","lng":"-117.023509","address":"751 MEDICAL CENTER CT         ","address2":"","city":"Chula Vista         ","state":"CA","postal":"91911","phone":"619-482-4021","web":"","hours1":"","hours2":"","hours3":""},
{"id":"387","name":"SHARP MEMORIAL HOSPITAL - GIFT SHOP  ","lat":"32.798583","lng":"-117.154618","address":"7901 FROST ST  ","address2":"","city":"San Diego           ","state":"CA","postal":"92123","phone":"858-541-3588","web":"","hours1":"","hours2":"","hours3":""},
{"id":"388","name":"SHELL WORLD OF FL KEYS        ","lat":"25.074271","lng":"-80.463489","address":"97600 Overseas Highway          ","address2":"","city":"Key Largo           ","state":"FL","postal":"33037","phone":"305-852-8245        ","web":"","hours1":"","hours2":"","hours3":""},
{"id":"389","name":"Silver Chalice                ","lat":"32.990645","lng":"-96.82287","address":"17405 Muirfield Dr            ","address2":"","city":"Dallas              ","state":"TX","postal":"75287","phone":"972-248-6505        ","web":"","hours1":"","hours2":"","hours3":""},
{"id":"390","name":"SILVERTON PHARMACY            ","lat":"40.01133","lng":"-74.147125","address":"1824 HOOPER AVENUE            ","address2":"","city":"Toms River          ","state":"NJ","postal":"8753","phone":"732-255-4788        ","web":"","hours1":"","hours2":"","hours3":""},
{"id":"391","name":"Simon Cheese                  ","lat":"44.300555","lng":"-88.313052","address":"2735 Freedom Rd               ","address2":"","city":"Appleton            ","state":"WI","postal":"54913","phone":"920-788-6311        ","web":"","hours1":"","hours2":"","hours3":""},
{"id":"392","name":"Simple Pleasures of Clinton   ","lat":"38.369566","lng":"-93.778015","address":"107 S Washington              ","address2":"","city":"Clinton             ","state":"MO","postal":"64735","phone":"660-383-1447        ","web":"","hours1":"","hours2":"","hours3":""},
{"id":"393","name":"SIMPLY SPLENDID               ","lat":"45.789304","lng":"-108.513221","address":"2800 10TH AVE NORTH           ","address2":"","city":"Billings            ","state":"MT","postal":"59101","phone":"406-657-4188","web":"","hours1":"","hours2":"","hours3":""},
{"id":"394","name":"Simpson Plaza Hardware        ","lat":"33.950825","lng":"-80.379925","address":"40 W Wesmark Blvd             ","address2":"","city":"Sumter              ","state":"SC","postal":"29150","phone":"803-773-3397        ","web":"","hours1":"","hours2":"","hours3":""},
{"id":"395","name":"Slovacek West LP              ","lat":"31.759903","lng":"-97.102936","address":"214 Melodie Dr                 ","address2":"","city":"West                ","state":"TX","postal":"76691","phone":"254-826-4525        ","web":"","hours1":"","hours2":"","hours3":""},
{"id":"396","name":"Smith Bros Inc                ","lat":"41.191121","lng":"-81.87825","address":"3087 Marks Rd                 ","address2":"","city":"Medina              ","state":"OH","postal":"44256","phone":"330-421-4564        ","web":"","hours1":"","hours2":"","hours3":""},
{"id":"397","name":"SNEAD'S ACE HOME CENTER       ","lat":"38.705245","lng":"-76.572796","address":"1750 PROSPER LANE             ","address2":"","city":"Owings              ","state":"MD","postal":"20736","phone":"410-257-2963","web":"","hours1":"","hours2":"","hours3":""},
{"id":"398","name":"SODEXO                        ","lat":"47.4437","lng":"-122.220958","address":"245 SW 41st ST                ","address2":"","city":"Renton              ","state":"WA","postal":"98057","phone":"253-961-7828        ","web":"","hours1":"","hours2":"","hours3":""},
{"id":"399","name":"SOMETHING NEW FLORIST         ","lat":"41.024542","lng":"-80.733516","address":"4500 BOARDMAN CANFIELD ROAD   ","address2":"","city":"Canfield            ","state":"OH","postal":"44406","phone":"330-702-8777        ","web":"","hours1":"","hours2":"","hours3":""},
{"id":"400","name":"SOUTH BERKELEY PHARMACY & GIFT","lat":"39.362671","lng":"-78.07183","address":"5054 GERRARDSTOWN ROAD   ","address2":"","city":"Inwood              ","state":"WV","postal":"25428","phone":"304-229-2400        ","web":"","hours1":"","hours2":"","hours3":""},
{"id":"401","name":"Southeast Georgia Health Sys  ","lat":"31.17376","lng":"-81.483199","address":"2415 Parkwood Drive           ","address2":"","city":"Brunswick           ","state":"GA","postal":"31521","phone":"                    ","web":"","hours1":"","hours2":"","hours3":""},
{"id":"402","name":"Southern Sisters              ","lat":"33.895748","lng":"-83.958016","address":"2023 Grayson Hwy              ","address2":"Suite 107"                     ,"city":"Grayson             ","state":"GA","postal":"30017","phone":"770-822-1900        ","web":"","hours1":"","hours2":"","hours3":""},
{"id":"403","name":"St Jeromes Hospital GS        ","lat":"42.998974","lng":"-78.181431","address":"16 Bank Street                ","address2":"","city":"Batavia             ","state":"NY","postal":"14020","phone":"585-343-6030        ","web":"","hours1":"","hours2":"","hours3":""},
{"id":"404","name":"ST JOSEPH'S HOSPITAL GIFT SHOP","lat":"44.808669","lng":"-91.536","address":"900 W CLAIRMONT AVE           ","address2":"","city":"Eau Claire          ","state":"WI","postal":"54701","phone":"715-723-1811","web":"","hours1":"","hours2":"","hours3":""},
{"id":"405","name":"St Lukes Hosp Aux Gift Shop   ","lat":"39.046364","lng":"-94.590136","address":"4400 Wornall Rd               ","address2":"","city":"Kansas City         ","state":"MO","postal":"64111","phone":"816-932-2050        ","web":"","hours1":"","hours2":"","hours3":""},
{"id":"406","name":"St Madeleine Sophies Center   ","lat":"32.802101","lng":"-116.901173","address":"2119 E Madison Avenue         ","address2":"","city":"El Cajon            ","state":"CA","postal":"92019","phone":"619-442-5129        ","web":"","hours1":"","hours2":"","hours3":""},
{"id":"407","name":"St Marys Hosp Volunteers Gift ","lat":"45.639479","lng":"-89.333225","address":"2251 N Shore Drive            ","address2":"","city":"Rhinelander         ","state":"WI","postal":"54501","phone":"715-361-2835        ","web":"","hours1":"","hours2":"","hours3":""},
{"id":"408","name":"ST. JOSEPH MEDICAL            ","lat":"38.935402","lng":"-94.603924","address":"1000 CARONDELET DR            ","address2":"","city":"Kansas City         ","state":"MO","postal":"64114","phone":"816-942-4400        ","web":"","hours1":"","hours2":"","hours3":""},
{"id":"409","name":"Stillwater Medical Center     ","lat":"36.072372","lng":"-97.055141","address":"1323 West Sixth              ","address2":"","city":"Stillwater          ","state":"OK","postal":"74076","phone":"405-742-5585        ","web":"","hours1":"","hours2":"","hours3":""},
{"id":"410","name":"STOTLAR DRUGSTORE             ","lat":"38.079631","lng":"-89.382941","address":"1 NORTH WALNUT              ","address2":"","city":"Pinckneyville       ","state":"IL","postal":"62274","phone":"618-357-8781        ","web":"","hours1":"","hours2":"","hours3":""},
{"id":"411","name":"Stoughton Hospital Gift Shop  ","lat":"42.920469","lng":"-89.20992","address":"900 Ridge Street              ","address2":"","city":"Stoughton           ","state":"WI","postal":"53589","phone":"608-873-2205        ","web":"","hours1":"","hours2":"","hours3":""},
{"id":"412","name":"Strawberry Gift               ","lat":"40.261227","lng":"-76.881239","address":"112 Strawberry Square         ","address2":"","city":"Harrisburg          ","state":"PA","postal":"17101","phone":"717-783-9530        ","web":"","hours1":"","hours2":"","hours3":""},
{"id":"413","name":"Stuarts Antiques              ","lat":"38.325182","lng":"-75.218391","address":"5 Pitts Street                ","address2":"","city":"Berlin              ","state":"MD","postal":"21811","phone":"410-641-0435        ","web":"","hours1":"","hours2":"","hours3":""},
{"id":"414","name":"Style ASAP                    ","lat":"31.315108","lng":"-85.854366","address":"102 N Main St                 ","address2":"","city":"Enterprise          ","state":"AL","postal":"36330","phone":"334-347-4111        ","web":"","hours1":"","hours2":"","hours3":""},
{"id":"415","name":"SUBLIME APPAREL               ","lat":"40.328645","lng":"-75.10278","address":"SHOP 161A                     ","address2":"PEDDLERS VILLAGE"              ,"city":"Lahaska             ","state":"PA","postal":"18931","phone":"215-794-9430        ","web":"","hours1":"","hours2":"","hours3":""},
{"id":"416","name":"Sugar Bowl                    ","lat":"42.644671","lng":"-95.201016","address":"622 Lake Avenue               ","address2":"","city":"Storm Lake          ","state":"IA","postal":"50588","phone":"712-732-2742        ","web":"","hours1":"","hours2":"","hours3":""},
{"id":"417","name":"SUMMER SNOW                   ","lat":"36.104175","lng":"-95.940064","address":"4111 S HARVARD AVE            ","address2":"","city":"Tulsa               ","state":"OK","postal":"74135","phone":"918-810-0766        ","web":"","hours1":"","hours2":"","hours3":""},
{"id":"418","name":"SUN PHARMACY                  ","lat":"39.671572","lng":"-76.056651","address":"ONE NORTH QUEEN STREET        ","address2":"","city":"Rising Sun          ","state":"MD","postal":"21911","phone":"410-658-6444        ","web":"","hours1":"","hours2":"","hours3":""},
{"id":"419","name":"SUSAN'S HALLMARK              ","lat":"42.617385","lng":"-83.990597","address":"10051 E. HIGHLAND ROAD #45    ","address2":"","city":"Howell              ","state":"MI","postal":"48843","phone":"810-632-5670        ","web":"","hours1":"","hours2":"","hours3":""},
{"id":"420","name":"SUSAN'S HALLMARK OF CLARKSTON ","lat":"42.71755","lng":"-83.415002","address":"6631 DIXIE HIGHWAY            ","address2":"","city":"Clarkston           ","state":"MI","postal":"48346","phone":"248-620-2070        ","web":"","hours1":"","hours2":"","hours3":""},
{"id":"421","name":"SUSAN'S HALLMARK OF DAVISON   ","lat":"43.035009","lng":"-83.518168","address":"634 N. STATE RD               ","address2":"","city":"Davison             ","state":"MI","postal":"48423","phone":"810-652-0195        ","web":"","hours1":"","hours2":"","hours3":""},
{"id":"422","name":"SUSAN'S HALLMARK OF FENTON    ","lat":"42.792246","lng":"-83.742074","address":"18015 SILVER PARKWAY","address2":"","city":"","state":"","postal":"48430","phone":"810-629-4212        ","web":"","hours1":"","hours2":"","hours3":""},
{"id":"423","name":"Tallokas Road                 ","lat":"31.130604","lng":"-83.758817","address":"2968 Tallokas Road","address2":"","city":"Moultrie            ","state":"GA","postal":"31788","phone":"229-873-4896        ","web":"","hours1":"","hours2":"","hours3":""},
{"id":"424","name":"TC Bearries Hallmark          ","lat":"34.818089","lng":"-82.602168","address":"6101 Calhoun Memorial Hwy     ","address2":"","city":"Easley              ","state":"SC","postal":"29640","phone":"864-859-1411        ","web":"","hours1":"","hours2":"","hours3":""},
{"id":"426","name":"Texas Traditions              ","lat":"32.93092","lng":"-96.460227","address":"114 East Rusk                 ","address2":"","city":"Rockwall            ","state":"TX","postal":"75087","phone":"972-771-8972        ","web":"","hours1":"","hours2":"","hours3":""},
{"id":"427","name":"The Addison Collection        ","lat":"26.425212","lng":"-80.145948","address":"16950 Jog Rd Ste 109          ","address2":"","city":"Delray Beach        ","state":"FL","postal":"33446","phone":"561-638-5465        ","web":"","hours1":"","hours2":"","hours3":""},
{"id":"428","name":"s","lat":"43.521227","lng":"-88.228963","address":"1304 Fond Du Lac Ave.    ","address2":"","city":"Kewaskum            ","state":"WI","postal":"53040","phone":"262-626-8733        ","web":"","hours1":"","hours2":"","hours3":""},
{"id":"429","name":"THE CORNER STORE              ","lat":"40.308845","lng":"-75.333986","address":"207 W. SUMMIT ST              ","address2":"SOUDERTON MENNONITE HOMES"     ,"city":"Souderton           ","state":"PA","postal":"18964","phone":"215-723-9881        ","web":"","hours1":"","hours2":"","hours3":""},
{"id":"430","name":"The Daisy                     ","lat":"41.98041","lng":"-91.6614","address":"712 Third Ave SE              ","address2":"","city":"Cedar Rapids        ","state":"IA","postal":"52401","phone":"319-362-3615        ","web":"","hours1":"","hours2":"","hours3":""},
{"id":"431","name":"The Divine Tree LLC           ","lat":"42.977489","lng":"-77.989701","address":"19 Main Street                ","address2":"","city":"Le Roy              ","state":"NY","postal":"14482","phone":"585-502-5386        ","web":"","hours1":"","hours2":"","hours3":""},
{"id":"432","name":"The Feathered Nest            ","lat":"39.822306","lng":"-97.631141","address":"1914 M Street              ","address2":"","city":"Belleville          ","state":"KS","postal":"66935","phone":"785-527-7200        ","web":"","hours1":"","hours2":"","hours3":""},
{"id":"433","name":"The Fireside                  ","lat":"42.9081","lng":"-88.851776","address":"1131 Janesville Ave           ","address2":"","city":"Fort Atkinson       ","state":"WI","postal":"53538","phone":"920-568-2024        ","web":"","hours1":"","hours2":"","hours3":""},
{"id":"434","name":"The Flower Shoppe By Jane     ","lat":"32.482406","lng":"-96.994348","address":"118 N 8th                     ","address2":"","city":"Midlothian          ","state":"TX","postal":"76065","phone":"972-775-1090        ","web":"","hours1":"","hours2":"","hours3":""},
{"id":"435","name":"The French Connection         ","lat":"31.691768","lng":"-89.129437","address":"317 Central Ave               ","address2":"","city":"Laurel              ","state":"MS","postal":"39440","phone":"601-426-2322        ","web":"","hours1":"","hours2":"","hours3":""},
{"id":"436","name":"THE FRONT PORCH               ","lat":"43.021035","lng":"-88.201542","address":"1505 HWY 164 SOUTH            ","address2":"","city":"Waukesha            ","state":"WI","postal":"53186","phone":"262-521-2100        ","web":"","hours1":"","hours2":"","hours3":""},
{"id":"437","name":"The Galilean                  ","lat":"31.123613","lng":"-93.27515","address":"1603 Boone Street             ","address2":"","city":"Leesville           ","state":"LA","postal":"71446","phone":"337-239-6248        ","web":"","hours1":"","hours2":"","hours3":""},
{"id":"438","name":"The Gift Box                  ","lat":"36.375122","lng":"-82.507238","address":"1008 Hillendale Road          ","address2":"","city":"Gray                ","state":"TN","postal":"37615","phone":"423-207-4679        ","web":"","hours1":"","hours2":"","hours3":""},
{"id":"439","name":"The Gift Spot                 ","lat":"29.194835","lng":"-96.268437","address":"101 S Mechanic                ","address2":"","city":"El Campo            ","state":"TX","postal":"77437","phone":"979-332-0092        ","web":"","hours1":"","hours2":"","hours3":""},
{"id":"440","name":"The Gift Store At Southlake   ","lat":"32.941322","lng":"-97.151989","address":"225 W Southlake Blvd          ","address2":"STE 403"                       ,"city":"Southlake           ","state":"TX","postal":"76092","phone":"817-442-8757        ","web":"","hours1":"","hours2":"","hours3":""},
{"id":"441","name":"The Market on New Castle      ","lat":"31.151496","lng":"-81.496032","address":"1624 Newcastle Street         ","address2":"","city":"Brunswick           ","state":"GA","postal":"31520","phone":"912-554-7909        ","web":"","hours1":"","hours2":"","hours3":""},
{"id":"442","name":"The Market Place              ","lat":"36.924974","lng":"-88.342523","address":"165 US Hwy 68 East            ","address2":"","city":"Benton              ","state":"KY","postal":"42025","phone":"270-527-2080        ","web":"","hours1":"","hours2":"","hours3":""},
{"id":"443","name":"The Market Shop               ","lat":"38.838056","lng":"-97.609135","address":"101 S Santa Fe                ","address2":"","city":"Salina              ","state":"KS","postal":"67401","phone":"785-823-5855        ","web":"","hours1":"","hours2":"","hours3":""},
{"id":"444","name":"The Painted Giraffe           ","lat":"34.196131","lng":"-82.166254","address":"339 Calhoun Ave               ","address2":"","city":"Greenwood           ","state":"SC","postal":"29649","phone":"864-943-5033        ","web":"","hours1":"","hours2":"","hours3":""},
{"id":"445","name":"THE PARTY SHOP                ","lat":"34.662978","lng":"-120.457952","address":"1540 N. H STREET              ","address2":"","city":"Lompoc              ","state":"CA","postal":"93436","phone":"805-735-2229","web":"","hours1":"","hours2":"","hours3":""},
{"id":"446","name":"The Sanctuary of Pella        ","lat":"41.406561","lng":"-92.916724","address":"719 Franklin Street           ","address2":"","city":"Pella               ","state":"IA","postal":"50219","phone":"641-628-4911        ","web":"","hours1":"","hours2":"","hours3":""},
{"id":"447","name":"The Southern Nest             ","lat":"35.041868","lng":"-80.880698","address":"6280 Carolina Commons Dr      ","address2":"","city":"INDIAN LAND         ","state":"SC","postal":"29707","phone":"803-802-1606        ","web":"","hours1":"","hours2":"","hours3":""},
{"id":"448","name":"The Victorian Parlour         ","lat":"37.785568","lng":"-79.441239","address":"23 S Main Street              ","address2":"","city":"Lexington           ","state":"VA","postal":"24450","phone":"540-464-8888        ","web":"","hours1":"","hours2":"","hours3":""},
{"id":"449","name":"THE WILLOWS                   ","lat":"43.189489","lng":"-88.729371","address":"644 SOUTH CHURCH ST           ","address2":"","city":"Watertown           ","state":"WI","postal":"53094","phone":"920-206-9110        ","web":"","hours1":"","hours2":"","hours3":""},
{"id":"450","name":"Things on Third               ","lat":"40.628842","lng":"-74.02869","address":"7815 Third Avenue             ","address2":"","city":"Brooklyn            ","state":"NY","postal":"11209","phone":"347-539-6451        ","web":"","hours1":"","hours2":"","hours3":""},
{"id":"451","name":"Three Bears                   ","lat":"35.797177","lng":"-83.566153","address":"2861 Parkway                   ","address2":"","city":"Pigeon Forge        ","state":"TN","postal":"37863","phone":"800-867-2272        ","web":"","hours1":"","hours2":"","hours3":""},
{"id":"452","name":"Thyme & Again                 ","lat":"35.615857","lng":"-82.320106","address":"105 Cherry Street             ","address2":"","city":"Black Mountain      ","state":"NC","postal":"28711","phone":"828-669-5981        ","web":"","hours1":"","hours2":"","hours3":""},
{"id":"453","name":"Tides Wharf Gift Shop","lat":"38.329677","lng":"-123.045592","address":"835 Highway 1","address2":"","city":"Bodega Bay","state":"CA","postal":"94923","phone":"","web":"","hours1":"","hours2":"","hours3":""},
{"id":"454","name":"TIFFANY NATURAL PHARMACY      ","lat":"40.64664","lng":"-74.362926","address":"1115 SOUTH AVE WEST           ","address2":"","city":"Westfield           ","state":"NJ","postal":"7090","phone":"908-233-2200        ","web":"","hours1":"","hours2":"","hours3":""},
{"id":"455","name":"Tigers Dept Store             ","lat":"35.045459","lng":"-83.818376","address":"42 Herbert Street             ","address2":"","city":"Hayesville          ","state":"NC","postal":"28904","phone":"828-389-6531        ","web":"","hours1":"","hours2":"","hours3":""},
{"id":"456","name":"TIPTON'S STATIONARY & GIFTS   ","lat":"37.797256","lng":"-121.215607","address":"169 W YOSEMITE AVE            ","address2":"","city":"Manteca             ","state":"CA","postal":"95336","phone":"209-823-7644        ","web":"","hours1":"","hours2":"","hours3":""},
{"id":"457","name":"TOMLINSON SALES               ","lat":"34.196965","lng":"-79.697497","address":"1309 East Palmetto Street                 ","address2":"","city":"Florence            ","state":"SC","postal":"29506","phone":"843-669-1854        ","web":"","hours1":"","hours2":"","hours3":""},
{"id":"458","name":"TOP O THE THUMB               ","lat":"45.288526","lng":"-87.021737","address":"12728 STATE HIGHWAY 42        ","address2":"","city":"Ellison Bay         ","state":"WI","postal":"54210","phone":"414-397-2055        ","web":"","hours1":"","hours2":"","hours3":""},
{"id":"459","name":"TOUCH OF EYELET               ","lat":"41.2851","lng":"-75.899218","address":"30 PARRY STREET               ","address2":"","city":"Luzerne             ","state":"PA","postal":"18709","phone":"570-814-8825        ","web":"","hours1":"","hours2":"","hours3":""},
{"id":"460","name":"Toyburg                       ","lat":"38.061139","lng":"-84.928032","address":"1080 Cable Court              ","address2":"","city":"Lawrenceburg        ","state":"KY","postal":"40342","phone":"502-517-4649        ","web":"","hours1":"","hours2":"","hours3":""},
{"id":"461","name":"Trade Secrets                 ","lat":"34.988082","lng":"-80.766277","address":"7833 Stonehaven Drive         ","address2":"","city":"Waxhaw              ","state":"NC","postal":"28173","phone":"704-243-1860        ","web":"","hours1":"","hours2":"","hours3":""},
{"id":"462","name":"TRADER RICK'S - FOR MEYERS    ","lat":"26.563628","lng":"-81.871287","address":"13499 US41 S.E. #217            ","address2":"","city":"Fort Myers          ","state":"FL","postal":"33907","phone":"239-454-0930","web":"","hours1":"","hours2":"","hours3":""},
{"id":"463","name":"Trends                        ","lat":"42.981538","lng":"-70.946189","address":"85 Water Street               ","address2":"","city":"Exeter              ","state":"NH","postal":"3833","phone":"603-778-3770        ","web":"","hours1":"","hours2":"","hours3":""},
{"id":"464","name":"Tricias Treasures             ","lat":"45.569253","lng":"-88.903344","address":"109 North Lake Avenue         ","address2":"","city":"Crandon             ","state":"WI","postal":"54520","phone":"715-478-1160        ","web":"","hours1":"","hours2":"","hours3":""},
{"id":"465","name":"Trochtas Flowers & Greenhouse ","lat":"35.539575","lng":"-97.513486","address":"6700 N Broadway Ext           ","address2":"","city":"Oklahoma City       ","state":"OK","postal":"73116","phone":"405-848-3338        ","web":"","hours1":"","hours2":"","hours3":""},
{"id":"466","name":"True Friends Boutique         ","lat":"39.83052","lng":"-77.230945","address":"22 Baltimore Street           ","address2":"","city":"Gettysburg          ","state":"PA","postal":"17325","phone":"717-334-2800        ","web":"","hours1":"","hours2":"","hours3":""},
{"id":"467","name":"TUALITY HEALTHCARE            ","lat":"45.519576","lng":"-122.977442","address":"335 SE 8TH AVE                ","address2":"","city":"Hillsboro           ","state":"OR","postal":"97123","phone":"503-681-1105        ","web":"","hours1":"","hours2":"","hours3":""},
{"id":"468","name":"Tucson Medical Center         ","lat":"32.250817","lng":"-110.879831","address":"5301 East Grant Road          ","address2":"Auxiliary Gift Shop","city":"Tucson","state":"AZ","postal":"85712","phone":"520-324-7032","web":"","hours1":"","hours2":"","hours3":""},
{"id":"469","name":"Tulips                        ","lat":"35.211664","lng":"-97.444799","address":"570 Buchanan Ave              ","address2":"","city":"Norman              ","state":"OK","postal":"73069","phone":"405-217-9322        ","web":"","hours1":"","hours2":"","hours3":""},
{"id":"470","name":"Tunies                        ","lat":"38.261737","lng":"-85.439292","address":"1616 Polo Club Ct             ","address2":"","city":"Louisville          ","state":"KY","postal":"40245","phone":"502-618-3868        ","web":"","hours1":"","hours2":"","hours3":""},
{"id":"471","name":"UAB Hospital Gift Shop        ","lat":"33.486966","lng":"-86.815147","address":"619 19th St S                 ","address2":"Lobby Shop"                    ,"city":"Birmingham          ","state":"AL","postal":"35249","phone":"205-934-6434","web":"","hours1":"","hours2":"","hours3":""},
{"id":"472","name":"UIHC Wildrose Gifts           ","lat":"41.657554","lng":"-91.549769","address":"200 Hawkins Drive             ","address2":"","city":"Iowa City           ","state":"IA","postal":"52242","phone":"319-356-4322        ","web":"","hours1":"","hours2":"","hours3":""},
{"id":"473","name":"UNION AVE LEGEND PHARMACY     ","lat":"40.566526","lng":"-74.528743","address":"433 W UNION AVE               ","address2":"","city":"Bound Brook         ","state":"NJ","postal":"8805","phone":"908-356-3113        ","web":"","hours1":"","hours2":"","hours3":""},
{"id":"474","name":"Unique Ideas N More           ","lat":"38.511732","lng":"-90.443309","address":"58 Fenton Plaza               ","address2":"","city":"Fenton              ","state":"MO","postal":"63026","phone":"314-740-7372        ","web":"","hours1":"","hours2":"","hours3":""},
{"id":"475","name":"Urban Loft                    ","lat":"42.368342","lng":"-83.470619","address":"551 Forest Ave                ","address2":"","city":"Plymouth            ","state":"MI","postal":"48170","phone":"734-453-4531        ","web":"","hours1":"","hours2":"","hours3":""},
{"id":"476","name":"UVMC Gift Shop                ","lat":"40.028471","lng":"-84.196426","address":"3130 North Dixie Highway      ","address2":"","city":"Troy                ","state":"OH","postal":"45373","phone":"937-440-4995        ","web":"","hours1":"","hours2":"","hours3":""},
{"id":"477","name":"Village Herb Shop             ","lat":"41.432593","lng":"-81.392435","address":"17 East Orange St             ","address2":"","city":"Chagrin Falls       ","state":"OH","postal":"44022","phone":"440-247-5029        ","web":"","hours1":"","hours2":"","hours3":""},
{"id":"478","name":"Village Pharmacy of Syosset   ","lat":"40.826334","lng":"-73.500178","address":"38 Cold Spring Road           ","address2":"","city":"Syosset             ","state":"NY","postal":"11791","phone":"516-921-0880        ","web":"","hours1":"","hours2":"","hours3":""},
{"id":"479","name":"VILLAGE SHOP - HUTCHINSON     ","lat":"44.890135","lng":"-94.36941","address":"114 MAIN STREET               ","address2":"","city":"Hutchinson          ","state":"MN","postal":"55350","phone":"320-587-2727        ","web":"","hours1":"","hours2":"","hours3":""},
{"id":"480","name":"Village Shoppes Inc           ","lat":"41.706428","lng":"-86.509118","address":"129 E Michigan Street           ","address2":"","city":"New Carlisle        ","state":"IN","postal":"46552","phone":"574-654-8352        ","web":"","hours1":"","hours2":"","hours3":""},
{"id":"481","name":"VILLAGE SHOPS                 ","lat":"43.32454","lng":"-76.423358","address":"2 WEST 1ST NORTH              ","address2":"","city":"Fulton              ","state":"NY","postal":"13069","phone":"315-592-9357        ","web":"","hours1":"","hours2":"","hours3":""},
{"id":"482","name":"Village Walk Pharmacy         ","lat":"31.938607","lng":"-81.049921","address":"1 Skidaway Village Walk       ","address2":"","city":"Savannah            ","state":"GA","postal":"31411","phone":"912-598-8669        ","web":"","hours1":"","hours2":"","hours3":""},
{"id":"483","name":"Vintaj By Larae               ","lat":"36.51148","lng":"-87.230393","address":"425 Treemont Dr               ","address2":"","city":"Clarksville         ","state":"TN","postal":"37043","phone":"931-801-1509        ","web":"","hours1":"","hours2":"","hours3":""},
{"id":"484","name":"Vision Ace Hardware           ","lat":"28.019928","lng":"-82.758058","address":"1750 Main Street              ","address2":"","city":"Dunedin             ","state":"FL","postal":"34698","phone":"727-733-3486        ","web":"","hours1":"","hours2":"","hours3":""},
{"id":"485","name":"Walker Pharmacy               ","lat":"32.425","lng":"-81.784956","address":"1198 Merchants Way                  ","address2":"","city":"Statesboro          ","state":"GA","postal":"30458","phone":"912-764-6175        ","web":"","hours1":"","hours2":"","hours3":""},
{"id":"486","name":"Wanderlust                    ","lat":"24.551511","lng":"-81.80258","address":"310 Petronia Street           ","address2":"","city":"Key West            ","state":"FL","postal":"33040","phone":"305-509-7065        ","web":"","hours1":"","hours2":"","hours3":""},
{"id":"487","name":"Warm Glow Candle Co           ","lat":"39.819619","lng":"-85.003045","address":"519 W Water St                ","address2":"","city":"Centerville         ","state":"IN","postal":"47330","phone":"765-855-5483        ","web":"","hours1":"","hours2":"","hours3":""},
{"id":"488","name":"Warmbier Farms                ","lat":"43.587678","lng":"-84.089805","address":"5300 Garfield Rd              ","address2":"","city":"Auburn              ","state":"MI","postal":"48611","phone":"989-662-7002        ","web":"","hours1":"","hours2":"","hours3":""},
{"id":"489","name":"Weathered Vane                ","lat":"44.107746","lng":"-103.221884","address":"2255 Haines Ave               ","address2":"Suite 300"                     ,"city":"Rapid City          ","state":"SD","postal":"57701","phone":"605-348-8154        ","web":"","hours1":"","hours2":"","hours3":""},
{"id":"490","name":"WEBBS HALLMARK                ","lat":"40.546531","lng":"-85.673984","address":"1412 S. WESTERN AVENUE        ","address2":"","city":"Marion              ","state":"IN","postal":"46952","phone":"765-664-4272        ","web":"","hours1":"","hours2":"","hours3":""},
{"id":"491","name":"Wellstar Douglas Hospital     ","lat":"33.739006","lng":"-84.732864","address":"8954 Hospital Drive           ","address2":"","city":"Douglasville        ","state":"GA","postal":"30134","phone":"678-715-6785        ","web":"","hours1":"","hours2":"","hours3":""},
{"id":"492","name":"Westhoff Mercantile Company   ","lat":"28.979787","lng":"-96.641267","address":"124 E Houston St              ","address2":"","city":"Edna                ","state":"TX","postal":"77957","phone":"361-782-2451        ","web":"","hours1":"","hours2":"","hours3":""},
{"id":"493","name":"WHITE LAVENDER                ","lat":"47.655395","lng":"-117.425151","address":"159 SOUTH LINCOLN STREET      ","address2":"SUITE 155"                     ,"city":"Spokane             ","state":"WA","postal":"99201","phone":"509-290-6191","web":"","hours1":"","hours2":"","hours3":""},
{"id":"494","name":"Willow                        ","lat":"32.024177","lng":"-102.106274","address":"2200 W Wadley                 ","address2":"Ste 16"                        ,"city":"Midland             ","state":"TX","postal":"79705","phone":"432-685-7077        ","web":"","hours1":"","hours2":"","hours3":""},
{"id":"495","name":"Willy Nilly Trading Co Inc    ","lat":"40.719815","lng":"-73.25105","address":"153 W Main Street             ","address2":"","city":"Bay Shore           ","state":"NY","postal":"11706","phone":"631-665-5510        ","web":"","hours1":"","hours2":"","hours3":""},
{"id":"496","name":"Wish Peddlers & St Nicks      ","lat":"34.963556","lng":"-82.327859","address":"578 Meece Bridge Rd           ","address2":"","city":"Taylors             ","state":"SC","postal":"29687","phone":"864-292-5036        ","web":"","hours1":"","hours2":"","hours3":""},
{"id":"497","name":"WISHING WELL GIFT SHOP        ","lat":"40.607969","lng":"-75.393257","address":"801 OSTRUM STREET             ","address2":"ST. LUKE'S HOSPITAL"       ,"city":"Bethlehem           ","state":"PA","postal":"18015","phone":"484-526-4681        ","web":"","hours1":"","hours2":"","hours3":""},
{"id":"498","name":"Wockenfuss Candy Co Inc       ","lat":"39.413106","lng":"-76.530044","address":"6831 Hartford Rd              ","address2":"","city":"Parkville           ","state":"MD","postal":"21234","phone":"410-483-4414        ","web":"","hours1":"","hours2":"","hours3":""},
{"id":"499","name":"WOMEN HEALTH BOUTIQUE         ","lat":"39.295907","lng":"-76.608438","address":"227 ST, PAUL PLACE            ","address2":"5th FLOOR","city":"Baltimore           ","state":"MD","postal":"21202","phone":"410-332-9859        ","web":"","hours1":"","hours2":"","hours3":""},
{"id":"500","name":"Womens Auxiliary Gift Shop    ","lat":"41.775011","lng":"-72.699362","address":"114 Woodland Street           ","address2":"","city":"Hartford            ","state":"CT","postal":"6105","phone":"860-714-4000        ","web":"","hours1":"","hours2":"","hours3":""},
{"id":"501","name":"WOOD ORCHARD                  ","lat":"44.845769","lng":"-87.361519","address":"1724 NORTH 14TH AVE           ","address2":"","city":"Sturgeon Bay        ","state":"WI","postal":"54235","phone":"920-743-6837        ","web":"","hours1":"","hours2":"","hours3":""},
{"id":"502","name":"WOODLAND LTD                  ","lat":"39.477655","lng":"-106.047745","address":"400 N PARK AVE                ","address2":"SUITE 10 B #305"               ,"city":"Breckenridge        ","state":"CO","postal":"80424","phone":"970-771-2190","web":"","hours1":"","hours2":"","hours3":""},
{"id":"503","name":"WOW FASHION WAREHOUSE         ","lat":"31.861177","lng":"-102.346028","address":"815 N. GRANDVIEW              ","address2":"","city":"Odessa              ","state":"TX","postal":"79761","phone":"432-770-1352        ","web":"","hours1":"","hours2":"","hours3":""},
{"id":"504","name":"You & Me                      ","lat":"43.172643","lng":"-79.042343","address":"467 Center Street             ","address2":"","city":"Lewiston            ","state":"NY","postal":"14092","phone":"716-430-3414        ","web":"","hours1":"","hours2":"","hours3":""},
{"id":"505","name":"Zsa Zsa's Gifts               ","lat":"32.324667","lng":"-90.863957","address":"2222 South Frontage Rd        ","address2":"Suite F"                       ,"city":"Vicksburg           ","state":"MS","postal":"39180","phone":"601-415-8341        ","web":"","hours1":"","hours2":"","hours3":""}]
